Ticker,Company Name,HQ City,HQ State/Province,HQ Country,ESG Risk Score,ESG Risk Score Level,ESG Risk Score Percentile,Environment Risk Score,Social Risk Score,Governance Risk Score,Controversy Level Risk Text,2019 Performance,Market Cap,Exchange,CEO,Logo Image URL,Website URL,Industry,Sector,Latitude,Longitude
MMM,3M Company,Saint paul,Minnesota,United states of america,35,High,69th percentile,12.6,12.7,9.2,Significant,-7.410517477,9.35E+10,New York Stock Exchange,Inge G. Thulin,https://financialmodelingprep.com/images-New-jpg/MMM.jpg,http://www.3m.com,Industrial Products,Industrials,44.9537029,-93.0899578
AOS,A.O. Smith Corporation,Milwaukee,Wisconsin,United states of america,25,Medium,37th percentile,13.6,4.3,7.3,Moderate,11.56908665,7.09E+09,New York Stock Exchange,Not Available,https://financialmodelingprep.com/images-New-jpg/AOS.jpg,http://www.aosmith.com,Industrial Products,Industrials,43.0389025,-87.9064736
ABT,Abbott Laboratories,Abbott park,Illinois,United states of america,31,High,57th percentile,3.7,15.3,11.6,Significant,20.08848334,1.58E+11,New York Stock Exchange,Miles D. White,https://financialmodelingprep.com/images-New-jpg/ABT.jpg,http://www.abbott.com,Drug Manufacturers,Healthcare,42.3041814,-87.8963916
ABBV,AbbVie Inc.,North chicago,Illinois,United states of america,30,High,56th percentile,1,16.5,12.8,Significant,-3.959214665,1.21E+11,New York Stock Exchange,Richard A. Gonzalez,https://financialmodelingprep.com/images-New-jpg/ABBV.jpg,http://www.abbvie.com,Drug Manufacturers,Healthcare,42.325578,-87.8411818
ABN.AS,ABN AMRO Bank N.V.,Amsterdam,Noord-holland,Netherlands,86,Severe,98th percentile,90,85,84,Significant,-21.03213242,1.49E+10,Amsterdam,Not Available,https://financialmodelingprep.com/images-New-jpg/ABN.AS.jpg,http://www.abnamro.com,Banks—Diversified,Financial Services,52.3666969,4.8945398
ACN,Accenture plc Class A (Ireland),Dublin,Dublin,Ireland; republic of,15,Low,7th percentile,1,8.2,6.2,Moderate,49.32983476,1.33E+11,New York Stock Exchange,Pierre Nanterme,https://financialmodelingprep.com/images-New-jpg/ACN.jpg,http://www.accenture.com,Application Software,Technology,53.3498053,-6.2603097
AC.PA,Accor SA,Issy-les-moulineaux,Ile-de-france,France,19,Negligible,16th percentile,7,7,5,Moderate,12.50336836,1.01E+10,Paris,Not Available,https://financialmodelingprep.com/images-New-jpg/AC.PA.jpg,http://group.accor.com/en,Lodging,Consumer Cyclical,48.8245306,2.2743419
ATVI,Activision Blizzard Inc,Santa monica,California,United states of america,17,Low,10th percentile,0.2,10.5,6.1,Moderate,27.59287095,4.68E+10,Nasdaq Global Select,Robert A. Kotick,https://financialmodelingprep.com/images-New-jpg/ATVI.jpg,http://www.activisionblizzard.com,Application Software,Technology,34.0194543,-118.4911912
AYI,Acuity Brands Inc (Holding Company),Atlanta,Georgia,United states of america,28,Medium,46th percentile,8.5,11.3,8,Moderate,20.05219661,4.82E+09,New York Stock Exchange,Vernon J. Nagel,https://financialmodelingprep.com/images-New-jpg/AYI.jpg,http://www.acuitybrands.com,Computer Hardware,Technology,33.7489954,-84.3879824
ADBE,Adobe Systems Incorporated,San jose,California,United states of america,14,Low,4th percentile,0.4,8.1,5.1,Moderate,45.77881895,1.74E+11,Nasdaq Global Select,Shantanu Narayen,https://financialmodelingprep.com/images-New-jpg/ADBE.jpg,http://www.adobe.com,Application Software,Technology,37.3382082,-121.8863286
AAP,Advance Auto Parts Inc W/I,Raleigh,North carolina,United states of america,13,Negligible,4th percentile,0,9,4,Moderate,1.714721199,9.37E+09,New York Stock Exchange,Thomas R. Greco,https://financialmodelingprep.com/images-New-jpg/AAP.jpg,https://shop.advanceautoparts.com,Retail - Apparel & Specialty,Consumer Cyclical,35.7795897,-78.6381787
ACM,AECOM,Los angeles,California,United states of america,31,High,59th percentile,5,17.3,9,Moderate,62.75471698,7.80E+09,New York Stock Exchange,Michael S. Burke,https://financialmodelingprep.com/images-New-jpg/ACM.jpg,http://www.aecom.com,Engineering & Construction,Industrials,34.0522342,-118.2436849
AER,Aercap Holdings N.V.,Dublin,0,Republic of Ireland,20,Medium,21st percentile,5.4,7.7,7.4,Moderate,55.22727273,7.70E+09,New York Stock Exchange,Aengus Kelly,https://financialmodelingprep.com/images-New-jpg/AER.jpg,http://www.aercap.com,Aerospace & Defense,Industrials,33.791638,-84.389488
ADP.PA,Aeroports de Paris SA,Tremblay-en-france,Ile-de-france,France,18,Negligible,13th percentile,2,9,6,,6.404833837,1.69E+10,Paris,Not Available,https://financialmodelingprep.com/images-New-jpg/ADP.PA.jpg,http://www.parisaeroport.fr,Airports & Air Services,Industrials,48.979952,2.557211
AFL,AFLAC Incorporated,Columbus,Georgia,United states of america,24,Medium,34th percentile,2,8.8,13.6,Moderate,16.11062335,3.89E+10,New York Stock Exchange,Daniel P. Amos,https://financialmodelingprep.com/images-New-jpg/AFL.jpg,http://www.aflac.com,Insurance - Life,Financial Services,32.4609764,-84.9877094
A,Agilent Technologies Inc.,Santa clara,California,United states of america,18,Low,12th percentile,0.9,9.4,7.2,Moderate,26.46012452,2.62E+10,New York Stock Exchange,Michael R. McMullen,https://financialmodelingprep.com/images-New-jpg/A.jpg,http://www.agilent.com,Medical Diagnostics & Research,Healthcare,37.3541079,-121.9552356
AGNC,AGNC Investment Corp.,Bethesda,Maryland,United states of america,20,Medium,21st percentile,3.8,6.5,10,,0.798175599,1.00E+10,Nasdaq Global Select,Gary D. Kain,https://financialmodelingprep.com/images-New-jpg/AGNC.jpg,http://www.agnc.com,REITs,Real Estate,38.984652,-77.0947092
AEM,Agnico Eagle Mines Limited,Toronto,Ontario,Canada,28,Medium,48th percentile,13.5,9.1,5.7,Moderate,52.5,1.47E+10,New York Stock Exchange,Sean Boyd,https://financialmodelingprep.com/images-New-jpg/AEM.jpg,http://www.agnicoeagle.com,Metals & Mining,Basic Materials,43.653226,-79.3831843
APD,Air Products and Chemicals Inc.,Allentown,Pennsylvania,United states of america,12,Low,3rd percentile,6.6,2,3.7,Moderate,46.82286785,5.33E+10,New York Stock Exchange,Seifollah Ghasemi,https://financialmodelingprep.com/images-New-jpg/APD.jpg,http://www.airproducts.com,Chemicals,Basic Materials,40.6022939,-75.4714098
AIR.PA,Airbus SE,Leiden,Zuid-holland,Netherlands,30,Severe,56th percentile,8,14,8,Significant,55.40733683,1.05E+11,Paris,Not Available,https://financialmodelingprep.com/images-New-jpg/AIR.PA.jpg,http://www.airbus.com,Aerospace & Defense,Industrials,52.1601144,4.4970097
AKAM,Akamai Technologies Inc.,Cambridge,Massachusetts,United states of america,21,Medium,23rd percentile,1.8,11.8,7.3,Low,41.4210871,1.53E+10,Nasdaq Global Select,F. Thomson Leighton,https://financialmodelingprep.com/images-New-jpg/AKAM.jpg,http://www.akamai.com,Application Software,Technology,42.3736158,-71.1097335
ALB,Albemarle Corporation,Charlotte,North carolina,United states of america,37,High,76th percentile,19.7,8.9,8.7,Low,-5.229012586,8.57E+09,New York Stock Exchange,Luther C. Kissam,https://financialmodelingprep.com/images-New-jpg/ALB.jpg,http://www.albemarle.com,Chemicals,Basic Materials,35.2270869,-80.8431267
AA,Alcoa Corporation,Pittsburgh,Pennsylvania,United states of america,31,High,58th percentile,15,9.2,6.9,Significant,-19.0744921,2.65E+09,New York Stock Exchange,Roy Christopher Harvey,https://financialmodelingprep.com/images-New-jpg/AA.jpg,http://www.alcoa.com,Metals & Mining,Basic Materials,40.4406248,-79.9958864
ARE,Alexandria Real Estate Equities Inc.,Pasadena,California,United states of america,15,Negligible,6th percentile,2,7,5,,40.21173204,2.13E+10,New York Stock Exchange,Joel S. Marcus,https://financialmodelingprep.com/images-New-jpg/ARE.jpg,http://www.are.com,REITs,Real Estate,34.1477849,-118.1445155
ALXN,Alexion Pharmaceuticals Inc.,Boston,Massachusetts,United states of america,27,Medium,44th percentile,0.1,18.8,8.2,Significant,11.08258012,2.22E+10,Nasdaq Global Select,Ludwig N. Hantson,https://financialmodelingprep.com/images-New-jpg/ALXN.jpg,http://www.alexionpharm.com,Biotechnology,Healthcare,42.3600825,-71.0588801
BABA,Alibaba Group Holding Limited,Hangzhou,Zhejiang,China,25,Medium,35th percentile,2.3,12.2,10.2,Moderate,54.7384548,5.63E+11,New York Stock Exchange,Yong Daniel Zhang,https://financialmodelingprep.com/images-New-jpg/BABA.jpg,http://www.alibabagroup.com,Retail - Apparel & Specialty,Consumer Cyclical,30.274084,120.15507
ALKS,Alkermes plc,Dublin,Dublin,Republic of Ireland,30,Severe,56th percentile,0,22,9,Low,-30.87089122,2.75E+09,Nasdaq Global Select,Richard F. Pops,https://financialmodelingprep.com/images-New-jpg/ALKS.jpg,http://www.alkermes.com,Biotechnology,Healthcare,53.3498053,-6.2603097
Y,Alleghany Corporation,New york city,New york,United states of america,33,Severe,65th percentile,3,13,18,Low,28.2760059,1.17E+10,New York Stock Exchange,Weston M. Hicks,https://financialmodelingprep.com/images-New-jpg/Y.jpg,http://www.alleghany.com,Insurance - Property & Casualty,Financial Services,40.7127753,-74.0059728
ALLE,Allegion plc,Dublin,Dublin,Ireland; republic of,24,Medium,32nd percentile,13.5,4.2,6.2,,56.24137498,1.21E+10,New York Stock Exchange,David D. Petratis,https://financialmodelingprep.com/images-New-jpg/ALLE.jpg,http://www.allegion.com,Consulting & Outsourcing,Industrials,53.3498053,-6.2603097
AGN,Allergan plc,Dublin,Dublin,Ireland; republic of,31,High,59th percentile,1.3,18.3,11.7,Significant,43.02708365,6.16E+10,New York Stock Exchange,Brenton L. Saunders,https://financialmodelingprep.com/images-New-jpg/AGN.jpg,http://www.allergan.com,Drug Manufacturers,Healthcare,53.3498053,-6.2603097
ADS,Alliance Data Systems Corporation,Columbus,Ohio,United states of america,17,Low,11th percentile,0.1,10.7,6.1,Moderate,-25.23987207,4.94E+09,New York Stock Exchange,Edward J. Heffernan,https://financialmodelingprep.com/images-New-jpg/ADS.jpg,http://www.alliancedata.com,Credit Services,Financial Services,39.9611755,-82.9987942
LNT,Alliant Energy Corporation,Madison,Wisconsin,United states of america,35,High,71st percentile,18.5,10.1,6.8,Moderate,29.5147929,1.43E+10,New York Stock Exchange,Patricia L. Kampling,https://financialmodelingprep.com/images-New-jpg/LNT.jpg,http://www.alliantenergy.com,Utilities - Regulated,Utilities,43.0730517,-89.4012302
ALL,Allstate Corporation (The),Northbrook,Illinois,United states of america,21,Medium,24th percentile,1.5,8.6,11.3,Moderate,36.08858768,3.88E+10,New York Stock Exchange,Thomas J. Wilson,https://financialmodelingprep.com/images-New-jpg/ALL.jpg,http://www.allstate.com,Insurance - Property & Casualty,Financial Services,42.1275267,-87.8289548
ALLY,Ally Financial Inc.,Detroit,Michigan,United states of america,25,Medium,36th percentile,0.2,15,9.8,Moderate,34.86319506,1.21E+10,New York Stock Exchange,Jeffrey J. Brown,https://financialmodelingprep.com/images-New-jpg/ALLY.jpg,http://www.ally.com,Banks,Financial Services,42.331427,-83.0457538
GOOGL,Alphabet Inc.,Mountain view,California,United states of america,30,Medium,53rd percentile,0.9,15.9,12.8,High,28.17619813,1.00E+12,Nasdaq Global Select,Larry Page,https://financialmodelingprep.com/images-New-jpg/GOOGL.jpg,https://www.abc.xyz,Online Media,Technology,37.3860517,-122.0838511
ALO.PA,Alstom SA,Saint-ouen,Ile-de-france,France,16,Negligible,9th percentile,3,5,8,Significant,3.201368524,1.07E+10,Paris,Not Available,https://financialmodelingprep.com/images-New-jpg/ALO.PA.jpg,http://www.alstom.com,Specialty Industrial Machinery,Industrials,48.911856,2.333764
AABA,Altaba Inc.,New york,New york,United states of america,33,High,64th percentile,3.2,14.4,15.1,Significant,-66.12012427,1.02E+10,Nasdaq Global Select,Thomas J. Mcinerney,https://financialmodelingprep.com/images-New-jpg/AABA.jpg,http://www.altaba.com,Asset Management,Financial Services,40.7127753,-74.0059728
MO,Altria Group Inc.,Richmond,Virginia,United states of america,25,Medium,36th percentile,6.3,12.4,6.3,Significant,1.052844705,8.97E+10,New York Stock Exchange,Martin J. Barrington,https://financialmodelingprep.com/images-New-jpg/MO.jpg,http://www.altria.com,Tobacco Products,Consumer Defensive,37.5407246,-77.4360481
AMZN,Amazon.com Inc.,Seattle,Washington,United states of america,31,High,56th percentile,5.8,13.7,11,Significant,23.02775688,9.27E+11,Nasdaq Global Select,Jeffrey P. Bezos,https://financialmodelingprep.com/images-New-jpg/AMZN.jpg,http://www.amazon.com,Online Media,Technology,47.6062095,-122.3320708
DOX,Amdocs Limited,Chesterfield missouri,Missouri,United states of america,18,Low,13th percentile,1.2,10.7,5.9,,23.23318539,9.92E+09,Nasdaq Global Select,Eli Gelman,https://financialmodelingprep.com/images-New-jpg/DOX.jpg,http://www.amdocs.com,Application Software,Technology,38.6631083,-90.5770675
AEE,Ameren Corporation,St. louis,Missouri,United states of america,36,High,72nd percentile,18,11.4,6.5,Moderate,17.73723747,2.01E+10,New York Stock Exchange,Warner L. Baxter,https://financialmodelingprep.com/images-New-jpg/AEE.jpg,http://www.ameren.com,Utilities - Regulated,Utilities,38.6270025,-90.1994042
AAL,American Airlines Group Inc.,Fort worth,Texas,United states of america,32,High,60th percentile,11.6,13.7,6.2,Moderate,-10.68203052,1.19E+10,Nasdaq Global Select,W. Douglas Parker,https://financialmodelingprep.com/images-New-jpg/AAL.jpg,http://www.aa.com,Airlines,Industrials,32.7554883,-97.3307658
AEP,American Electric Power Company Inc.,Columbus,Ohio,United states of america,31,High,56th percentile,16.4,8.7,5.5,Moderate,26.45169922,5.14E+10,New York Stock Exchange,Nicholas K. Akins,https://financialmodelingprep.com/images-New-jpg/AEP.jpg,http://www.aep.com,Utilities - Regulated,Utilities,39.9611755,-82.9987942
AXP,American Express Company,New york city,New york,United states of america,23,Medium,29th percentile,0.1,12.8,10.1,Significant,30.60218212,1.08E+11,New York Stock Exchange,Stephen J. Squeri,https://financialmodelingprep.com/images-New-jpg/AXP.jpg,http://www.americanexpress.com,Credit Services,Financial Services,40.7127753,-74.0059728
AIG,American International Group Inc.,New york city,New york,United states of america,29,Medium,52nd percentile,1.9,11.6,16,Moderate,30.24613042,4.46E+10,New York Stock Exchange,Brian Duperreault,https://financialmodelingprep.com/images-New-jpg/AIG.jpg,http://www.aig.com,Insurance,Financial Services,40.7127753,-74.0059728
AMT,American Tower Corporation (REIT),Boston,Massachusetts,United states of america,18,Low,14th percentile,5.8,6.7,5.6,,45.28099121,1.04E+11,New York Stock Exchange,James D. Taiclet,https://financialmodelingprep.com/images-New-jpg/AMT.jpg,http://www.americantower.com,Communication Services,Communication Services,42.3600825,-71.0588801
AWK,American Water Works Company Inc.,Camden,New jersey,United states of america,29,Medium,52nd percentile,13.1,10.1,6.1,Moderate,35.34207337,2.47E+10,New York Stock Exchange,Susan N. Story,https://financialmodelingprep.com/images-New-jpg/AWK.jpg,http://www.amwater.com,Utilities - Regulated,Utilities,39.9259463,-75.1196199
ABC,AmerisourceBergen Corporation,Chesterbrook,Pennsylvania,United states of america,18,Low,14th percentile,2.6,9.1,6.1,Significant,14.27419355,1.83E+10,New York Stock Exchange,Steven H. Collis,https://financialmodelingprep.com/images-New-jpg/ABC.jpg,http://www.amerisourcebergen.com,Medical Distribution,Healthcare,40.0756627,-75.4590816
AMGN,Amgen Inc.,Thousand oaks,California,United states of america,22,Medium,28th percentile,0,15.8,6.6,Moderate,23.8352083,1.34E+11,Nasdaq Global Select,Robert A. Bradway,https://financialmodelingprep.com/images-New-jpg/AMGN.jpg,http://www.amgen.com,Biotechnology,Healthcare,34.1705609,-118.8375937
ADI,Analog Devices Inc.,Norwood,Massachusetts,United states of america,26,Medium,39th percentile,10.5,7.7,7.8,,38.45974601,4.15E+10,Nasdaq Global Select,Vincent T. Roche,https://financialmodelingprep.com/images-New-jpg/ADI.jpg,http://www.analog.com,Semiconductors,Technology,42.1943909,-71.1989695
NLY,Annaly Capital Management Inc,New york city,New york,United states of america,18,Low,14th percentile,4.2,6.6,7.5,,-4.073319756,1.40E+10,New York Stock Exchange,Kevin Keyes,https://financialmodelingprep.com/images-New-jpg/NLY.jpg,http://www.annaly.com,REITs,Real Estate,40.7127753,-74.0059728
ANSS,ANSYS Inc.,Canonsburg,Pennsylvania,United states of america,16,Negligible,8th percentile,1,10,5,,80.08255212,2.39E+10,Nasdaq Global Select,Ajei S. Gopal,https://financialmodelingprep.com/images-New-jpg/ANSS.jpg,http://www.ansys.com,Application Software,Technology,40.2625702,-80.1872797
AR,Antero Resources Corporation,Denver,Colorado,United states of america,55,Severe,97th percentile,28.2,16.4,10.2,Moderate,-69.6485623,5.21E+08,New York Stock Exchange,Paul M. Rady,https://financialmodelingprep.com/images-New-jpg/AR.jpg,http://www.anteroresources.com,Oil & Gas - E&P,Energy,39.7392358,-104.990251
RRC,Range Resources Corporation,Fort worth,Texas,United states of america,46,Severe,91st percentile,23.9,12.4,9.7,Moderate,-49.32079415,7.57E+08,New York Stock Exchange,Jeffrey L. Ventura,https://financialmodelingprep.com/images-New-jpg/RRC.jpg,http://www.rangeresources.com,Oil & Gas - E&P,Energy,32.7554883,-97.3307658
ECA,Encana Corporation,Denver,Colorado,United states of america,35,High,70th percentile,18.3,8.7,7.9,Moderate,-18.85813149,9.79E+08,New York Stock Exchange,Douglas Suttles,https://financialmodelingprep.com/images-New-jpg/ECA.jpg,http://www.encana.com,Oil & Gas - E&P,Energy,39.7392358,-104.990251
CHK,Chesapeake Energy Corporation,Oklahoma city,Oklahoma,United states of america,44,Severe,87th percentile,22.8,11,9.8,Moderate,-60.47619048,1.03E+09,New York Stock Exchange,Robert D. Lawler,https://financialmodelingprep.com/images-New-jpg/CHK.jpg,http://www.chk.com,Oil & Gas - E&P,Energy,35.4675602,-97.5164276
TRQ,Turquoise Hill Resources Ltd.,Vancouver,British columbia,Canada,41,Severe,82nd percentile,17.4,12.5,10.8,Moderate,-55.15151515,1.27E+09,New York Stock Exchange,Jeffery D. Tygesen,https://financialmodelingprep.com/images-New-jpg/TRQ.jpg,http://www.turquoisehill.com,Metals & Mining,Basic Materials,49.2827291,-123.1207375
EQT,EQT Corporation,Pittsburgh,Pennsylvania,United states of america,38,High,76th percentile,21.6,8.4,7.6,Moderate,-42.29751191,1.58E+09,New York Stock Exchange,Steven T. Schlotterbeck,https://financialmodelingprep.com/images-New-jpg/EQT.jpg,http://www.eqt.com,Oil & Gas - E&P,Energy,40.4406248,-79.9958864
X,United States Steel Corporation,Pittsburgh,Pennsylvania,United states of america,46,Severe,91st percentile,21.6,16.6,8.1,Significant,-37.44517544,1.60E+09,New York Stock Exchange,David B. Burritt,https://financialmodelingprep.com/images-New-jpg/X.jpg,http://www.ussteel.com,Steel,Basic Materials,40.4406248,-79.9958864
SPB,Spectrum Brands Holdings Inc.,Middleton,Wisconsin,United states of america,47,Medium,65th percentile,43.9,48,51,Moderate,54.33469799,2163205000,New York Stock Exchange,Not Available,https://financialmodelingprep.com/images-New-jpg/SPB.jpg,http://www.spectrumbrands.com,Consumer Packaged Goods,Consumer Defensive,43.0972174,-89.5042876
VII.TO,Seven Generations Energy Ltd.,Calgary,Alberta,Canada,39,Severe,79th percentile,19,11,8,,-23.96768402,2.28E+09,Toronto,Not Available,https://financialmodelingprep.com/images-New-jpg/VII.TO.jpg,http://www.7genergy.com,Oil & Gas E&P,Energy,51.0447331,-114.0718831
ARX.TO,ARC Resources Ltd.,Calgary,Alberta,Canada,33,Severe,64th percentile,16,9,8,,0.987654321,2.49E+09,Toronto,Not Available,https://financialmodelingprep.com/images-New-jpg/ARX.TO.jpg,http://www.arcresources.com,Oil & Gas E&P,Energy,51.0447331,-114.0718831
FLR,Fluor Corporation,Irving,Texas,United states of america,28,Medium,46th percentile,6.8,14.1,6.9,Significant,-41.36645963,2.61E+09,New York Stock Exchange,David T. Seaton,https://financialmodelingprep.com/images-New-jpg/FLR.jpg,http://www.fluor.com,Engineering & Construction,Industrials,32.8140177,-96.9488945
AA,Alcoa Corporation,Pittsburgh,Pennsylvania,United states of america,31,High,58th percentile,15,9.2,6.9,Significant,-19.0744921,2.65E+09,New York Stock Exchange,Roy Christopher Harvey,https://financialmodelingprep.com/images-New-jpg/AA.jpg,http://www.alcoa.com,Metals & Mining,Basic Materials,40.4406248,-79.9958864
ALKS,Alkermes plc,Dublin,Dublin,Ireland; republic of,30,Severe,56th percentile,0,22,9,Low,-30.87089122,2.75E+09,Nasdaq Global Select,Richard F. Pops,https://financialmodelingprep.com/images-New-jpg/ALKS.jpg,http://www.alkermes.com,Biotechnology,Healthcare,53.3498053,-6.2603097
KAR,KAR Auction Services Inc,Carmel,Indiana,United states of america,23,Medium,30th percentile,5.6,12.4,5.2,,20.65337763,2.79E+09,New York Stock Exchange,James P. Hallett,https://financialmodelingprep.com/images-New-jpg/KAR.jpg,http://www.karauctionservices.com,Retail - Apparel & Specialty,Consumer Cyclical,39.978371,-86.1180435
IGT,International Game Technology,London,0,United kingdom,19,Low,18th percentile,1.5,9.4,8.5,Low,2.323991798,2.80E+09,New York Stock Exchange,Marco Sala,https://financialmodelingprep.com/images-New-jpg/IGT.jpg,http://www.igt.com,Travel & Leisure,Consumer Cyclical,33.791638,-84.389488
RIG,Transocean Ltd (Switzerland),Steinhausen,Zug,Switzerland,31,High,57th percentile,10.6,10.6,9.6,Significant,-0.864553314,2.90E+09,New York Stock Exchange,Jeremy D. Thigpen,https://financialmodelingprep.com/images-New-jpg/RIG.jpg,http://www.deepwater.com,Oil & Gas - Drilling,Energy,47.197193,8.4850173
GT,The Goodyear Tire & Rubber Company,Akron,Ohio,United states of america,18,Low,15th percentile,5,5.4,8.1,Significant,-23.76286134,3.15E+09,Nasdaq Global Select,Richard J. Kramer,https://financialmodelingprep.com/images-New-jpg/GT.jpg,http://www.goodyear.com,Autos,Consumer Cyclical,41.0814447,-81.5190053
SIX,Six Flags Entertainment Corporation,Grand prairie,Texas,United states of america,30,Medium,54th percentile,13.9,11.4,4.6,Moderate,-18.91065972,3.20E+09,New York Stock Exchange,James W.P. Reid-Anderson,https://financialmodelingprep.com/images-New-jpg/SIX.jpg,https://www.sixflags.com,Travel & Leisure,Consumer Cyclical,32.7459645,-96.9977846
MAC,Macerich Company (The),Santa monica,California,United states of america,15,Low,6th percentile,2.6,6.8,5.3,Moderate,-37.80036969,3.24E+09,New York Stock Exchange,Arthur M. Coppola,https://financialmodelingprep.com/images-New-jpg/MAC.jpg,http://www.macerich.com,REITs,Real Estate,34.0194543,-118.4911912
PSK.TO,PrairieSky Royalty Ltd.,Calgary,Alberta,Canada,17,Negligible,12th percentile,7,3,7,,-13.80871534,3.46E+09,Toronto,Not Available,https://financialmodelingprep.com/images-New-jpg/PSK.TO.jpg,http://www.prairiesky.com,Oil & Gas E&P,Energy,51.0447331,-114.0718831
AVT,Avnet Inc.,Phoenix,Arizona,United states of america,10,Low,2nd percentile,3.7,3.3,3.5,,17.56232687,3.78E+09,New York Stock Exchange,Not Available,https://financialmodelingprep.com/images-New-jpg/AVT.jpg,http://www.avnet.com,Computer Hardware,Technology,33.4483771,-112.0740373
EXP,Eagle Materials Inc,Dallas,Texas,United states of america,37,High,75th percentile,21.1,6.5,9.2,Low,48.5498935,3.83E+09,New York Stock Exchange,David B. Powers,https://financialmodelingprep.com/images-New-jpg/EXP.jpg,http://www.eaglematerials.com,Building Materials,Basic Materials,32.7766642,-96.7969879
MSM,MSC Industrial Direct Company Inc.,Melville,New york,United states of america,20,Low,19th percentile,5.1,7.2,7.4,,2.015080603,3.90E+09,New York Stock Exchange,Erik Gershwind,https://financialmodelingprep.com/images-New-jpg/MSM.jpg,http://www.mscdirect.com,Industrial Distribution,Industrials,40.7934322,-73.4151214
TRIP,TripAdvisor Inc.,Needham,Massachusetts,United states of america,21,Medium,22nd percentile,3.2,10.6,6.8,Moderate,-43.67816092,3.93E+09,Nasdaq Global Select,Stephen Kaufer,https://financialmodelingprep.com/images-New-jpg/TRIP.jpg,http://www.tripadvisor.com,Travel & Leisure,Consumer Cyclical,42.2809285,-71.2377548
CO.PA,Casino  Guichard-Perrachon Societe Anonyme,Saint-etienne,Auvergne-rhone-alpes,France,17,Negligible,11th percentile,3,9,5,Moderate,14.74958723,3.94E+09,Paris,Not Available,https://financialmodelingprep.com/images-New-jpg/CO.PA.jpg,http://www.groupe-casino.fr,Grocery Stores,Consumer Defensive,45.439695,4.3871779
SATS,EchoStar Corporation,Englewood,Colorado,United states of america,22,Medium,27th percentile,1.6,10.9,10,Low,45.53091398,3.96E+09,Nasdaq Global Select,Michael T. Dugan,https://financialmodelingprep.com/images-New-jpg/SATS.jpg,http://www.echostar.com,Communication Equipment,Technology,39.6477653,-104.9877597
DKS,Dick's Sporting Goods Inc,Coraopolis,Pennsylvania,United states of america,19,Low,15th percentile,4.7,7.9,5.9,Low,58.62179487,3.99E+09,New York Stock Exchange,Not Available,https://financialmodelingprep.com/images-New-jpg/DKS.jpg,http://www.dickssportinggoods.com,Retail - Apparel & Specialty,Consumer Cyclical,40.5184013,-80.1667247
FL,Foot Locker Inc.,New york city,New york,United states of america,16,Low,8th percentile,2.5,7.4,5.5,Moderate,-26.71052632,4.08E+09,New York Stock Exchange,Richard A. Johnson,https://financialmodelingprep.com/images-New-jpg/FL.jpg,http://www.footlocker-inc.com,Retail - Apparel & Specialty,Consumer Cyclical,40.7127753,-74.0059728
PACW,PacWest Bancorp,Brea,California,United states of america,29,Medium,49th percentile,2.2,13.8,12.7,Low,14.99399038,4.25E+09,Nasdaq Global Select,Matthew P. Wagner,https://financialmodelingprep.com/images-New-jpg/PACW.jpg,http://www.pacwestbancorp.com,Banks,Financial Services,33.916475,-117.9002918
NCR,NCR Corporation,Atlanta,Georgia,United states of america,24,Medium,33rd percentile,3.9,11.2,8.9,Moderate,52.33968804,4.38E+09,New York Stock Exchange,William R. Nuti,https://financialmodelingprep.com/images-New-jpg/NCR.jpg,http://www.ncr.com,Application Software,Technology,33.7489954,-84.3879824
HP,Helmerich & Payne Inc.,Tulsa,Oklahoma,United states of america,26,Medium,41st percentile,8.3,9,9,Low,-5.235711306,4.45E+09,New York Stock Exchange,John W. Lindsay,https://financialmodelingprep.com/images-New-jpg/HP.jpg,http://www.hpinc.com,Oil & Gas - Drilling,Energy,36.1539816,-95.992775
LAZ,Lazard LTD. LTD. Class A,Hamilton,0,Bermuda,26,Medium,41st percentile,2,11.6,12.9,Low,8.263343267,4.50E+09,New York Stock Exchange,Kenneth M. Jacobs,https://financialmodelingprep.com/images-New-jpg/LAZ.jpg,http://www.lazard.com,Brokers & Exchanges,Financial Services,33.791638,-84.389488
THO,Thor Industries Inc.,Elkhart,Indiana,United states of america,32,High,62nd percentile,9.9,14.6,7.7,,42.86538462,4.52E+09,New York Stock Exchange,Robert W. Martin,https://financialmodelingprep.com/images-New-jpg/THO.jpg,http://www.thorindustries.com,Autos,Consumer Cyclical,41.6819935,-85.9766671
ASH,Ashland Global Holdings Inc.,Covington,Delaware,United states of america,39,High,79th percentile,18.5,10.9,9.2,Low,7.849492672,4.57E+09,New York Stock Exchange,Not Available,https://financialmodelingprep.com/images-New-jpg/ASH.jpg,http://www.ashland.com,Chemicals,Basic Materials,38.9108325,-75.5276699
CIT,CIT Group Inc (DEL),Livingston,New jersey,United states of america,27,Medium,44th percentile,2.1,13.6,11.5,Significant,19.23177424,4.59E+09,New York Stock Exchange,Ellen R. Alemany,https://financialmodelingprep.com/images-New-jpg/CIT.jpg,http://www.cit.com,Banks,Financial Services,40.7862871,-74.3300842
SLM,SLM Corporation,Newark delaware,Delaware,United states of america,24,Medium,34th percentile,0.2,13.4,10.7,,7.220216606,4.64E+09,Nasdaq Global Select,Raymond J. Quinlan,https://financialmodelingprep.com/images-New-jpg/SLM.jpg,http://www.salliemae.com,Credit Services,Financial Services,39.6837226,-75.7496572
XEC,Cimarex Energy Co,Denver,Colorado,United states of america,52,Severe,96th percentile,27.7,13.9,10.4,Moderate,-14.85806975,4.66E+09,New York Stock Exchange,Thomas E. Jorden,https://financialmodelingprep.com/images-New-jpg/XEC.jpg,http://www.cimarex.com,Oil & Gas - E&P,Energy,39.7392358,-104.990251
CPRI,Capri Holdings Limited,London,0,United kingdom,15,Negligible,6th percentile,2,7,6,Moderate,0.606540084,4.76E+09,NYSE,Not Available,https://financialmodelingprep.com/images-New-jpg/CPRI.jpg,http://www.capriholdings.com,Apparel Manufacturing,Consumer Cyclical,33.791638,-84.389488
AYI,Acuity Brands Inc (Holding Company),Atlanta,Georgia,United states of america,28,Medium,46th percentile,8.5,11.3,8,Moderate,20.05219661,4.82E+09,New York Stock Exchange,Vernon J. Nagel,https://financialmodelingprep.com/images-New-jpg/AYI.jpg,http://www.acuitybrands.com,Computer Hardware,Technology,33.7489954,-84.3879824
HUN,Huntsman Corporation,The woodlands,Texas,United states of america,34,High,68th percentile,15.5,8.6,10,Moderate,25.24624158,4.84E+09,New York Stock Exchange,Peter R. Huntsman,https://financialmodelingprep.com/images-New-jpg/HUN.jpg,http://www.huntsman.com,Chemicals,Basic Materials,30.1658207,-95.4612625
TNET.BR,Telenet Group Holding NV,Malines (mechelen),Antwerpen,Belgium,17,Negligible,11th percentile,2,7,8,Low,-1.330049261,4.84E+09,Brussels,Not Available,https://financialmodelingprep.com/images-New-jpg/TNET.BR.jpg,http://investors.telenet.be/phoenix.zhtml?c=241896&p=irol-irhome,Telecom Services,Communication Services,51.0258761,4.4775362
ADS,Alliance Data Systems Corporation,Columbus,Ohio,United states of america,17,Low,11th percentile,0.1,10.7,6.1,Moderate,-25.23987207,4.94E+09,New York Stock Exchange,Edward J. Heffernan,https://financialmodelingprep.com/images-New-jpg/ADS.jpg,http://www.alliancedata.com,Credit Services,Financial Services,39.9611755,-82.9987942
WPX,WPX Energy Inc.,Tulsa,Oklahoma,United states of america,61,Severe,99th percentile,31.9,18.1,10.6,Moderate,21.05726872,5.04E+09,New York Stock Exchange,Richard E. Muncrief,https://financialmodelingprep.com/images-New-jpg/WPX.jpg,http://www.wpxenergy.com,Oil & Gas - E&P,Energy,36.1539816,-95.992775
MAT,Mattel Inc.,El segundo,California,United states of america,14,Low,5th percentile,0,8.1,5.8,Significant,35.63563564,5.06E+09,Nasdaq Global Select,Mary Margaret Hastings Georgiadis,https://financialmodelingprep.com/images-New-jpg/MAT.jpg,http://www.mattel.com,Travel & Leisure,Consumer Cyclical,33.9191799,-118.4164652
DEC.PA,JCDecaux SA,Neuilly-sur-seine,Ile-de-france,France,14,Negligible,5th percentile,0,7,7,,7.849293564,5.13E+09,Paris,Not Available,https://financialmodelingprep.com/images-New-jpg/DEC.PA.jpg,http://www.jcdecaux.com,Advertising Agencies,Communication Services,48.884831,2.26851
HBI,Hanesbrands Inc.,Winston salem,North carolina,United states of america,14,Low,5th percentile,1.2,7,5.7,Moderate,18.51556265,5.16E+09,New York Stock Exchange,Gerald Evans,https://financialmodelingprep.com/images-New-jpg/HBI.jpg,http://www.hanes.com/corporate,Manufacturing - Apparel & Furniture,Consumer Cyclical,36.0998596,-80.244216
NYCB,New York Community Bancorp Inc.,Westbury,New york,United states of america,28,Medium,45th percentile,3.6,13.3,10.7,,27.73645058,5.17E+09,New York Stock Exchange,Joseph R. Ficalora,https://financialmodelingprep.com/images-New-jpg/NYCB.jpg,https://www.mynycb.com,Banks,Financial Services,40.7556561,-73.5876273
M,Macy's Inc,Cincinnati,Ohio,United states of america,14,Low,6th percentile,2.4,7.1,4.9,Moderate,-42.91470786,5.20E+09,New York Stock Exchange,Jeffrey Gennette,https://financialmodelingprep.com/images-New-jpg/M.jpg,http://www.macysinc.com,Retail - Apparel & Specialty,Consumer Cyclical,39.1031182,-84.5120196
SNV,Synovus Financial Corp.,Columbus,Georgia,United states of america,29,Medium,51st percentile,2.2,13.3,13.6,Moderate,22.53829322,5.21E+09,New York Stock Exchange,Kessel D Stelling,https://financialmodelingprep.com/images-New-jpg/SNV.jpg,http://www.synovus.com,Banks,Financial Services,32.4609764,-84.9877094
ICL,Israel Chemicals Limited,Tel aviv-yafo,0,Israel,36,Severe,72nd percentile,18,9,9,Moderate,-15.37102473,5.22E+09,New York Stock Exchange,Asher Grinbaum,https://financialmodelingprep.com/images-New-jpg/ICL.jpg,http://www.icl-group.com,Agriculture,Basic Materials,33.791638,-84.389488
HOG,Harley-Davidson Inc.,Milwaukee,Wisconsin,United states of america,17,Negligible,12th percentile,4,8,6,Moderate,8.997655334,5.24E+09,New York Stock Exchange,Matthew S. Levatich,https://financialmodelingprep.com/images-New-jpg/HOG.jpg,http://www.harley-davidson.com,Autos,Consumer Cyclical,43.0389025,-87.9064736
MF.PA,Wendel,Paris,Ile-de-france,France,12,Negligible,3rd percentile,0,3,10,Moderate,13.18051576,5.34E+09,Paris,Not Available,https://financialmodelingprep.com/images-New-jpg/MF.PA.jpg,http://www.wendelgroup.com,Asset Management,Financial Services,48.856614,2.3522219
SNC.TO,SNC-Lavalin Group Inc.,Montreal,Quebec,Canada,35,Severe,69th percentile,7,16,11,High,-34.77787456,5.44E+09,Toronto,Not Available,https://financialmodelingprep.com/images-New-jpg/SNC.TO.jpg,http://www.snclavalin.com/en,Engineering & Construction,Industrials,45.5016889,-73.567256
IPN.PA,Ipsen S.A.,Boulogne-billancourt,Ile-de-france,France,30,Severe,56th percentile,1,18,11,Low,-29.99556934,5.49E+09,Paris,Not Available,https://financialmodelingprep.com/images-New-jpg/IPN.PA.jpg,http://www.ipsen.com,Drug Manufacturers—Specialty & Generic,Healthcare,48.8396952,2.2399123
AXS,Axis Capital Holdings Limited,Pembroke,0,Bermuda,31,High,57th percentile,2.2,11.7,16.9,Low,15.1045701,5.52E+09,New York Stock Exchange,Albert A. Benchimol,https://financialmodelingprep.com/images-New-jpg/AXS.jpg,http://www.axiscapital.com,Insurance - Property & Casualty,Financial Services,33.791638,-84.389488
MAN,ManpowerGroup,Milwaukee,Wisconsin,United states of america,13,Negligible,4th percentile,0,9,4,Moderate,49.84567901,5.54E+09,New York Stock Exchange,Jonas Prising,https://financialmodelingprep.com/images-New-jpg/MAN.jpg,http://www.manpowergroup.com,Employment Services,Industrials,43.0389025,-87.9064736
UNM,Unum Group,Chattanooga,Tennessee,United states of america,25,Medium,37th percentile,1.8,10.5,12.8,Moderate,-0.748808713,5.66E+09,New York Stock Exchange,Not Available,https://financialmodelingprep.com/images-New-jpg/UNM.jpg,http://www.unum.com,Insurance - Life,Financial Services,35.0456297,-85.3096801
SEE,Sealed Air Corporation,Charlotte,North carolina,United states of america,20,Medium,20th percentile,13.4,2.5,4.1,Moderate,14.32261768,5.67E+09,New York Stock Exchange,Edward L. Doheny,https://financialmodelingprep.com/images-New-jpg/SEE.jpg,http://www.sealedair.com,Packaging & Containers,Consumer Cyclical,35.2270869,-80.8431267
LECO,Lincoln Electric Holdings Inc.,Euclid,Ohio,United states of america,31,High,59th percentile,9.4,15.2,6.6,Low,22.67596703,5.68E+09,Nasdaq Global Select,Christopher L. Mapes,https://financialmodelingprep.com/images-New-jpg/LECO.jpg,http://www.lincolnelectric.com,Industrial Products,Industrials,41.5931049,-81.5267873
PWR,Quanta Services Inc.,Houston,Texas,United states of america,37,High,76th percentile,9.1,16.5,11.9,Low,35.24916944,5.68E+09,New York Stock Exchange,Earl C. Austin,https://financialmodelingprep.com/images-New-jpg/PWR.jpg,http://www.quantaservices.com,Engineering & Construction,Industrials,29.7604267,-95.3698028
PII,Polaris Industries Inc.,Medina,Minnesota,United states of america,13,Negligible,4th percentile,0,7,6,Moderate,32.62910798,5.78E+09,New York Stock Exchange,Scott W. Wine,https://financialmodelingprep.com/images-New-jpg/PII.jpg,http://www.polaris.com,Autos,Consumer Cyclical,45.0352411,-93.5824586
CFR,Cullen/Frost Bankers Inc.,San antonio,Texas,United states of america,26,Medium,39th percentile,1.7,11.2,12.8,Low,11.18944735,5.80E+09,New York Stock Exchange,Phillip D. Green,https://financialmodelingprep.com/images-New-jpg/CFR.jpg,http://www.frostbank.com,Banks,Financial Services,29.4241219,-98.4936282
SON,Sonoco Products Company,Hartsville,South carolina,United states of america,20,Low,19th percentile,13.7,2.1,3.9,,16.16789008,5.82E+09,New York Stock Exchange,M. Jack Sanders,https://financialmodelingprep.com/images-New-jpg/SON.jpg,http://www.sonoco.com,Packaging & Containers,Consumer Cyclical,34.3740431,-80.0734005
COG,Cabot Oil & Gas Corporation,Houston,Texas,United states of america,51,Severe,95th percentile,24.6,16.1,10.1,Low,-22.10290828,5.84E+09,New York Stock Exchange,Dan O. Dinges,https://financialmodelingprep.com/images-New-jpg/COG.jpg,http://www.cabotog.com,Oil & Gas - E&P,Energy,29.7604267,-95.3698028
SRCL,Stericycle Inc.,Bannockburn,Illinois,United states of america,26,Medium,38th percentile,14.8,7.1,3.7,Moderate,73.91659853,5.87E+09,Nasdaq Global Select,Charles Alutto,https://financialmodelingprep.com/images-New-jpg/SRCL.jpg,http://www.stericycle.com,Waste Management,Industrials,42.1933581,-87.8664579
GIL,Gildan Activewear Inc. Class A Sub. Vot.,Montreal,Quebec,Canada,11,Low,2nd percentile,0.9,5.1,5.5,Moderate,-2.733860343,5.88E+09,New York Stock Exchange,Glenn J. Chamandy,https://financialmodelingprep.com/images-New-jpg/GIL.jpg,http://www.gildan.com,Manufacturing - Apparel & Furniture,Consumer Cyclical,45.5016889,-73.567256
SABR,Sabre Corporation,Southlake,Texas,United states of america,22,Medium,25th percentile,0.1,13.1,8.4,Moderate,3.696857671,5.97E+09,Nasdaq Global Select,Sean E. Menke,https://financialmodelingprep.com/images-New-jpg/SABR.jpg,http://www.sabre.com,Application Software,Technology,32.9412363,-97.1341783
SK.PA,SEB SA,Ecully,Auvergne-rhone-alpes,France,15,Negligible,8th percentile,5,3,7,Moderate,17.37588652,5.97E+09,Paris,Not Available,https://financialmodelingprep.com/images-New-jpg/SK.PA.jpg,http://www.groupeseb.com,Furnishings  Fixtures & Appliances,Consumer Cyclical,45.774657,4.77867
HLF,Herbalife Ltd.,Grand cayman,0,Cayman islands,32,High,61st percentile,13.5,9.8,8.7,Moderate,-19.13486005,5.98E+09,New York Stock Exchange,Richard P. Goudis,https://financialmodelingprep.com/images-New-jpg/HLF.jpg,http://www.herbalife.com,Consumer Packaged Goods,Consumer Defensive,33.791638,-84.389488
JWN,Nordstrom Inc.,Seattle,Washington,United states of america,15,Low,8th percentile,1.9,8,5.5,Moderate,-12.18622613,6.00E+09,New York Stock Exchange,Blake W. Nordstrom,https://financialmodelingprep.com/images-New-jpg/JWN.jpg,http://www.nordstrom.com,Retail - Apparel & Specialty,Consumer Cyclical,47.6062095,-122.3320708
MDU,MDU Resources Group Inc.,Bismarck,North dakota,United states of america,37,High,74th percentile,21.8,6.7,8.3,Low,24.62248322,6.01E+09,New York Stock Exchange,David L. Goodin,https://financialmodelingprep.com/images-New-jpg/MDU.jpg,http://www.mdu.com,Building Materials,Basic Materials,46.8083268,-100.7837392
BRX,Brixmor Property Group Inc.,New york city,New york,United states of america,18,Negligible,12th percentile,6,5,7,Significant,47.10687543,6.02E+09,New York Stock Exchange,James M. Taylor,https://financialmodelingprep.com/images-New-jpg/BRX.jpg,http://www.brixmor.com,REITs,Real Estate,40.7127753,-74.0059728
SESG.PA,SES S.A.,Betzdorf,0,Luxembourg,18,Negligible,14th percentile,4,6,8,0,-25.19449431,6.07E+09,Paris,Not Available,https://financialmodelingprep.com/images-New-jpg/SESG.PA.jpg,http://www.ses.com,Broadcasting,Communication Services,33.791638,-84.389488
INGR,Ingredion Incorporated,Westchester,Illinois,United states of america,31,High,59th percentile,12.1,12.7,6.3,Low,1.695842451,6.08E+09,New York Stock Exchange,James Zallie,https://financialmodelingprep.com/images-New-jpg/INGR.jpg,http://www.ingredion.com,Consumer Packaged Goods,Consumer Defensive,41.8498339,-87.8806738
TOL,Toll Brothers Inc.,Horsham,Pennsylvania,United states of america,21,Medium,23rd percentile,7.7,8.3,5.1,Moderate,19.98177953,6.26E+09,New York Stock Exchange,Douglas C. Yearley,https://financialmodelingprep.com/images-New-jpg/TOL.jpg,http://www.TollBrothers.com,Homebuilding & Construction,Consumer Cyclical,40.1784422,-75.1285061
FLS,Flowserve Corporation,Irving,Texas,United states of america,37,Severe,75th percentile,11,19,7,Moderate,30.90478695,6.36E+09,New York Stock Exchange,R. Scott Rowe,https://financialmodelingprep.com/images-New-jpg/FLS.jpg,http://www.flowserve.com,Industrial Products,Industrials,32.8140177,-96.9488945
MIDD,The Middleby Corporation,Elgin,Illinois,United states of america,33,Severe,64th percentile,9,16,8,Moderate,6.609559038,6.39E+09,Nasdaq Global Select,Selim A. Bassoul,https://financialmodelingprep.com/images-New-jpg/MIDD.jpg,http://www.middleby.com,Industrial Products,Industrials,42.0354084,-88.2825668
AKE.PA,Arkema S.A.,Colombes,Ile-de-france,France,31,Severe,59th percentile,16,6,10,Significant,26.33404482,6.43E+09,Paris,Not Available,https://financialmodelingprep.com/images-New-jpg/AKE.PA.jpg,http://www.arkema.com,Specialty Chemicals,Basic Materials,48.9220615,2.2533313
LB,L Brands Inc.,Columbus,Ohio,United states of america,16,Low,8th percentile,2.5,7.2,6.1,Moderate,-29.41176471,6.47E+09,New York Stock Exchange,Leslie H. Wexner,https://financialmodelingprep.com/images-New-jpg/LB.jpg,http://www.lb.com,Retail - Apparel & Specialty,Consumer Cyclical,39.9611755,-82.9987942
LEG,Leggett & Platt Incorporated,Carthage,Missouri,United states of america,36,High,73rd percentile,11.4,16,8.6,Moderate,41.82477679,6.50E+09,New York Stock Exchange,Karl G. Glassman,https://financialmodelingprep.com/images-New-jpg/LEG.jpg,http://www.leggett.com,Manufacturing - Apparel & Furniture,Consumer Cyclical,37.176447,-94.3102228
FR.PA,Valeo SA,Paris,Ile-de-france,France,12,Negligible,3rd percentile,2,3,7,Moderate,23.12818503,6.50E+09,Paris,Not Available,https://financialmodelingprep.com/images-New-jpg/FR.PA.jpg,http://www.valeo.com,Auto Parts,Consumer Cyclical,48.856614,2.3522219
JEF,Jefferies Financial Group Inc.,New york,New york,United states of america,14,Negligible,4th percentile,0,4,10,Moderate,23.09907834,6.55E+09,NYSE,Not Available,https://financialmodelingprep.com/images-New-jpg/JEF.jpg,http://www.jefferies.com,Financial Conglomerates,Financial Services,40.7127753,-74.0059728
STLD,Steel Dynamics Inc.,Fort wayne,Indiana,United states of america,34,High,69th percentile,13.2,14.2,6.9,Moderate,13.31557923,6.56E+09,Nasdaq Global Select,Mark D. Millett,https://financialmodelingprep.com/images-New-jpg/STLD.jpg,http://www.steeldynamics.com,Steel,Basic Materials,41.079273,-85.1393513
FLEX,Flex Ltd.,Singapore,Singapore,Singapore,8,Negligible,1st percentile,0.8,2.8,4.9,Low,65.83442838,6.58E+09,Nasdaq Global Select,Not Available,https://financialmodelingprep.com/images-New-jpg/FLEX.jpg,https://www.flex.com,Computer Hardware,Technology,33.791638,-84.389488
CDK,CDK Global Inc.,Hoffman estates,Illinois,United states of america,19,Low,17th percentile,1.4,12.7,5.2,Moderate,14.2021721,6.61E+09,Nasdaq Global Select,Brian Patrick MacDonald,https://financialmodelingprep.com/images-New-jpg/CDK.jpg,http://www.cdkglobal.com,Application Software,Technology,42.0629915,-88.1227199
PVH,PVH Corp.,New york city,New york,United states of america,15,Low,8th percentile,1.1,7.6,6.8,Significant,13.1253362,6.67E+09,New York Stock Exchange,Emanuel Chirico,https://financialmodelingprep.com/images-New-jpg/PVH.jpg,http://www.pvh.com,Manufacturing - Apparel & Furniture,Consumer Cyclical,40.7127753,-74.0059728
AXTA,Axalta Coating Systems Ltd.,Philadelphia,Pennsylvania,United states of america,26,Medium,40th percentile,13.1,7.7,5.4,Moderate,29.80358668,6.70E+09,New York Stock Exchange,Charles W. Shaver,https://financialmodelingprep.com/images-New-jpg/AXTA.jpg,http://www.axaltacs.com,Chemicals,Basic Materials,39.9525839,-75.1652215
HDS,HD Supply Holdings Inc.,Atlanta,Georgia,United states of america,21,Medium,23rd percentile,5.7,7.8,7.5,Low,7.196162047,6.71E+09,Nasdaq Global Select,Joseph J. Deangelo,https://financialmodelingprep.com/images-New-jpg/HDS.jpg,http://www.hdsupply.com,Industrial Distribution,Industrials,33.7489954,-84.3879824
SMG,Scotts Miracle-Gro Company (The),Marysville,Ohio,United states of america,47,Severe,91st percentile,20.8,15.7,10.2,Moderate,72.76277253,6.74E+09,New York Stock Exchange,Not Available,https://financialmodelingprep.com/images-New-jpg/SMG.jpg,http://www.scottsmiraclegro.com,Agriculture,Basic Materials,40.2364486,-83.3671432
SPR,Spirit Aerosystems Holdings Inc.,Wichita,Kansas,United states of america,37,Severe,74th percentile,11,17,9,Moderate,1.095852407,6.74E+09,New York Stock Exchange,Thomas C. Gentile,https://financialmodelingprep.com/images-New-jpg/SPR.jpg,http://www.spiritaero.com,Aerospace & Defense,Industrials,37.6871761,-97.330053
GPS,Gap Inc. (The),San francisco,California,United states of america,13,Low,4th percentile,1.1,6.2,5.9,Significant,-31.36645963,6.76E+09,New York Stock Exchange,Not Available,https://financialmodelingprep.com/images-New-jpg/GPS.jpg,http://www.gapinc.com,Retail - Apparel & Specialty,Consumer Cyclical,37.7749295,-122.4194155
DCI,Donaldson Company Inc.,Minneapolis,Minnesota,United states of america,33,High,65th percentile,10.8,15.2,7.2,Moderate,32.79557502,6.77E+09,New York Stock Exchange,Tod E. Carpenter,https://financialmodelingprep.com/images-New-jpg/DCI.jpg,http://www.donaldson.com,Industrial Products,Industrials,44.977753,-93.2650108
ALV,Autoliv Inc.,Stockholm,Stockholm,Sweden,17,Low,12th percentile,5.2,4.8,7.3,Significant,20.19080165,6.82E+09,New York Stock Exchange,Jan Carlson,https://financialmodelingprep.com/images-New-jpg/ALV.jpg,http://www.autoliv.com,Autos,Consumer Cyclical,59.3293235,18.0685808
OC,Owens Corning Inc New,Toledo,Ohio,United states of america,17,Low,12th percentile,8.8,2.4,6.3,Moderate,48.06730332,6.84E+09,New York Stock Exchange,Michael H. Thaman,https://financialmodelingprep.com/images-New-jpg/OC.jpg,http://www.owenscorning.com,Building Materials,Basic Materials,41.6528052,-83.5378674
PBCT,People's United Financial Inc.,Bridgeport,Connecticut,United states of america,27,Medium,42nd percentile,3.3,12.8,10.7,Moderate,17.11711712,6.87E+09,Nasdaq Global Select,John P. Barnes,https://financialmodelingprep.com/images-New-jpg/PBCT.jpg,http://www.peoples.com,Banks,Financial Services,41.1792258,-73.1894384
EWBC,East West Bancorp Inc.,Pasadena,California,United states of america,27,Medium,42nd percentile,2.2,12.2,12.2,Low,11.87686653,6.91E+09,Nasdaq Global Select,Dominic Ng,https://financialmodelingprep.com/images-New-jpg/EWBC.jpg,http://www.eastwestbank.com,Banks,Financial Services,34.1477849,-118.1445155
IPGP,IPG Photonics Corporation,Oxford,Massachusetts,United states of america,14,Negligible,5th percentile,3,4,6,,27.91949863,6.96E+09,Nasdaq Global Select,Valentin P. Gapontsev,https://financialmodelingprep.com/images-New-jpg/IPGP.jpg,http://www.ipgphotonics.com,Semiconductors,Technology,42.1167606,-71.8647577
ORI,Old Republic International Corporation,Chicago,Illinois,United states of america,33,Severe,63rd percentile,2,12,18,Moderate,8.750607681,6.96E+09,New York Stock Exchange,Aldo C. Zucaro,https://financialmodelingprep.com/images-New-jpg/ORI.jpg,http://www.oldrepublic.com,Insurance,Financial Services,41.8781136,-87.6297982
WBC,Wabco Holdings Inc.,Bern,Bern,Switzerland,25,Medium,36th percentile,5.5,11.7,7.8,Moderate,26.23439538,6.96E+09,New York Stock Exchange,Jacques Esculier,https://financialmodelingprep.com/images-New-jpg/WBC.jpg,http://www.wabco-auto.com,Autos,Consumer Cyclical,46.9479739,7.4474468
KSS,Kohl's Corporation,Menomonee falls,Wisconsin,United states of america,16,Low,9th percentile,2.3,8.7,4.9,Moderate,-23.1986735,6.98E+09,New York Stock Exchange,Kevin Mansell,https://financialmodelingprep.com/images-New-jpg/KSS.jpg,https://www.kohlscorporation.com,Retail - Apparel & Specialty,Consumer Cyclical,43.1788967,-88.1173132
GVNV.AS,GrandVision N.V.,Schiphol,Noord-holland,Netherlands,15,Negligible,6th percentile,3,6,5,Moderate,43.3350758,7.03E+09,Amsterdam,Not Available,https://financialmodelingprep.com/images-New-jpg/GVNV.AS.jpg,http://www.grandvision.com,Specialty Retail,Consumer Cyclical,52.3076865,4.7674241
RHI,Robert Half International Inc.,Menlo park,California,United states of america,11,Low,2nd percentile,0.1,7.4,3.9,Low,10.4020979,7.04E+09,New York Stock Exchange,Harold M. Messmer,https://financialmodelingprep.com/images-New-jpg/RHI.jpg,http://www.roberthalf.com,Employment Services,Industrials,37.4529598,-122.1817252
AOS,A.O. Smith Corporation,Milwaukee,Wisconsin,United states of america,25,Medium,37th percentile,13.6,4.3,7.3,Moderate,11.56908665,7.09E+09,New York Stock Exchange,Not Available,https://financialmodelingprep.com/images-New-jpg/AOS.jpg,http://www.aosmith.com,Industrial Products,Industrials,43.0389025,-87.9064736
BWA,BorgWarner Inc.,Auburn hills,Michigan,United states of america,24,Medium,31st percentile,5.1,10.8,7.6,Moderate,24.87046632,7.24E+09,New York Stock Exchange,James R. Verrier,https://financialmodelingprep.com/images-New-jpg/BWA.jpg,http://www.borgwarner.com,Autos,Consumer Cyclical,42.6875323,-83.2341028
HFC,HollyFrontier Corporation,Dallas,Texas,United states of america,37,High,75th percentile,22.1,9.4,5.7,Low,-0.802034429,7.29E+09,New York Stock Exchange,George J. Damiris,https://financialmodelingprep.com/images-New-jpg/HFC.jpg,http://www.hollyfrontier.com,Oil & Gas - Refining & Marketing,Energy,32.7766642,-96.7969879
SLG,SL Green Realty Corporation,New york city,New york,United states of america,15,Low,7th percentile,3.6,3.8,7.8,Low,16.18614062,7.35E+09,New York Stock Exchange,Marc Holliday,https://financialmodelingprep.com/images-New-jpg/SLG.jpg,http://www.slgreen.com,REITs,Real Estate,40.7127753,-74.0059728
TPR,Tapestry Inc.,New york city,New york,United states of america,14,Low,6th percentile,1.7,6.9,5.7,Moderate,-20.08888889,7.35E+09,New York Stock Exchange,Victor Luis,https://financialmodelingprep.com/images-New-jpg/TPR.jpg,http://www.tapestry.com,Retail - Apparel & Specialty,Consumer Cyclical,40.7127753,-74.0059728
ICAD.PA,Icade,Issy-les-moulineaux,Ile-de-france,France,12,Negligible,2nd percentile,3,3,6,,45.93984962,7.38E+09,Paris,Not Available,https://financialmodelingprep.com/images-New-jpg/ICAD.PA.jpg,http://www.icade.fr,REIT—Diversified,Real Estate,48.8245306,2.2743419
DEI,Douglas Emmett Inc.,Santa monica,California,United states of america,19,Negligible,16th percentile,5,6,7,,28.62584237,7.39E+09,New York Stock Exchange,Jordan L. Kaplan,https://financialmodelingprep.com/images-New-jpg/DEI.jpg,http://www.douglasemmett.com,REITs,Real Estate,34.0194543,-118.4911912
NLSN,Nielsen N.V.,New york,New york,United states of america,23,Medium,30th percentile,0.1,16.5,6.6,Low,-12.98756965,7.40E+09,New York Stock Exchange,Dwight M. Barns,https://financialmodelingprep.com/images-New-jpg/NLSN.jpg,http://www.nielsen.com,Business Services,Industrials,40.7127753,-74.0059728
BG,Bunge Limited,White plains,New york,United states of america,36,High,73rd percentile,16.6,14.1,5.2,Significant,7.690868263,7.43E+09,New York Stock Exchange,Soren Schroder,https://financialmodelingprep.com/images-New-jpg/BG.jpg,http://www.bunge.com,Consumer Packaged Goods,Consumer Defensive,41.0339862,-73.7629097
PNR,Pentair plc.,Manchester,0,United kingdom,31,High,58th percentile,8.7,15.5,6.8,Low,21.41344627,7.44E+09,New York Stock Exchange,Randall J. Hogan,https://financialmodelingprep.com/images-New-jpg/PNR.jpg,http://www.pentair.com,Industrial Products,Industrials,33.791638,-84.389488
TECK,Teck Resources Ltd,Vancouver,British columbia,Canada,21,Medium,24th percentile,10.7,6.1,4.7,Significant,-19.35933148,7.49E+09,New York Stock Exchange,Donald R. Lindsay,https://financialmodelingprep.com/images-New-jpg/TECK.jpg,http://www.teck.com,Metals & Mining,Basic Materials,49.2827291,-123.1207375
FFIV,F5 Networks Inc.,Seattle,Washington,United states of america,18,Negligible,13th percentile,1,11,5,,-13.81225699,7.61E+09,Nasdaq Global Select,Francois Locoh-Donou,https://financialmodelingprep.com/images-New-jpg/FFIV.jpg,http://www.f5.com,Application Software,Technology,47.6062095,-122.3320708
LEA,Lear Corporation,Southfield,Michigan,United states of america,17,Low,10th percentile,4.9,5.2,6.5,Moderate,11.67182159,7.62E+09,New York Stock Exchange,Matthew J. Simoncini,https://financialmodelingprep.com/images-New-jpg/LEA.jpg,http://www.lear.com,Autos,Consumer Cyclical,42.4733688,-83.2218731
MOS,Mosaic Company (The),Tampa,Florida,United states of america,38,High,78th percentile,17.8,11.9,8.8,Significant,-25.91578227,7.64E+09,New York Stock Exchange,James C. O'Rourke,https://financialmodelingprep.com/images-New-jpg/MOS.jpg,http://www.mosaicco.com,Agriculture,Basic Materials,27.950575,-82.4571776
AER,Aercap Holdings N.V.,Dublin,0,Ireland; republic of,20,Medium,21st percentile,5.4,7.7,7.4,Moderate,55.22727273,7.70E+09,New York Stock Exchange,Aengus Kelly,https://financialmodelingprep.com/images-New-jpg/AER.jpg,http://www.aercap.com,Aerospace & Defense,Industrials,33.791638,-84.389488
JNPR,Juniper Networks Inc.,Sunnyvale,California,United states of america,16,Low,10th percentile,0.4,8.3,7.6,Moderate,-8.472686734,7.70E+09,New York Stock Exchange,Rami Rahim,https://financialmodelingprep.com/images-New-jpg/JNPR.jpg,http://www.juniper.net,Communication Equipment,Technology,37.36883,-122.0363496
QGEN,Qiagen N.V.,Venlo,Limburg,Netherlands,17,Low,10th percentile,1.8,8,6.9,Low,-1.886792453,7.70E+09,New York Stock Exchange,Peer M. Schatz,https://financialmodelingprep.com/images-New-jpg/QGEN.jpg,http://www.qiagen.com,Medical Diagnostics & Research,Healthcare,51.3703748,6.1724031
CBSH,Commerce Bancshares Inc.,Kansas city,Missouri,United states of america,27,Medium,43rd percentile,1.9,11.1,13.9,,20.525102,7.72E+09,Nasdaq Global Select,David W. Kemper,https://financialmodelingprep.com/images-New-jpg/CBSH.jpg,http://www.commercebank.com,Banks,Financial Services,39.0997265,-94.5785667
ST,Sensata Technologies Holding N.V.,Swindon,Wiltshire,United kingdom,24,Medium,34th percentile,6.8,10.5,7.1,,20.1382694,7.73E+09,New York Stock Exchange,Martha N Sullivan,https://financialmodelingprep.com/images-New-jpg/ST.jpg,http://www.sensata.com,Computer Hardware,Technology,51.5557739,-1.7797176
GIL.TO,Gildan Activewear Inc.,Montreal,Quebec,Canada,11,Negligible,2nd percentile,1,5,6,Moderate,-7.36003861,7.76E+09,Toronto,Not Available,https://financialmodelingprep.com/images-New-jpg/GIL.TO.jpg,http://www.gildan.com,Apparel Manufacturing,Consumer Cyclical,45.5016889,-73.567256
COTY,Coty Inc. Class A,New york city,New york,United states of america,32,High,60th percentile,13.7,9.6,8.3,Low,71.49390244,7.79E+09,New York Stock Exchange,Camillo Pane,https://financialmodelingprep.com/images-New-jpg/COTY.jpg,http://www.coty.com,Consumer Packaged Goods,Consumer Defensive,40.7127753,-74.0059728
ACM,AECOM,Los angeles,California,United states of america,31,High,59th percentile,5,17.3,9,Moderate,62.75471698,7.80E+09,New York Stock Exchange,Michael S. Burke,https://financialmodelingprep.com/images-New-jpg/ACM.jpg,http://www.aecom.com,Engineering & Construction,Industrials,34.0522342,-118.2436849
GNTX,Gentex Corporation,Zeeland,Michigan,United states of america,25,Medium,35th percentile,6.7,10.5,7.5,,43.39435923,7.83E+09,Nasdaq Global Select,Steve Downing,https://financialmodelingprep.com/images-New-jpg/GNTX.jpg,http://www.gentex.com,Autos,Consumer Cyclical,42.8125246,-86.018651
PRGO,Perrigo Company plc,Dublin,Dublin,Ireland; republic of,41,Severe,82nd percentile,3.1,24.2,13.5,Moderate,33.31612903,7.88E+09,New York Stock Exchange,Uwe Röhrhoff,https://financialmodelingprep.com/images-New-jpg/PRGO.jpg,http://www.perrigo.com,Drug Manufacturers,Healthcare,53.3498053,-6.2603097
AIV,Apartment Investment and Management Company,Denver,Colorado,United states of america,19,Low,16th percentile,7,5.3,6.3,Low,17.70738377,7.92E+09,New York Stock Exchange,Terry Considine,https://financialmodelingprep.com/images-New-jpg/AIV.jpg,http://www.aimco.com,REITs,Real Estate,39.7392358,-104.990251
AIZ,Assurant Inc.,New york city,New york,United states of america,26,Medium,41st percentile,1.4,11.3,13.6,Significant,46.55635063,7.97E+09,New York Stock Exchange,Alan B. Colberg,https://financialmodelingprep.com/images-New-jpg/AIZ.jpg,http://www.assurant.com,Insurance,Financial Services,40.7127753,-74.0059728
IVZ,Invesco Ltd,Atlanta,Georgia,United states of america,26,Medium,40th percentile,1.5,13.5,11.1,Moderate,7.407407407,8.00E+09,New York Stock Exchange,Martin L. Flanagan,https://financialmodelingprep.com/images-New-jpg/IVZ.jpg,http://www.invesco.com,Asset Management,Financial Services,33.7489954,-84.3879824
NOV,National Oilwell Varco Inc.,Houston,Texas,United states of america,34,High,69th percentile,13,12.7,8.7,Moderate,-2.529182879,8.11E+09,New York Stock Exchange,Clay C. Williams,https://financialmodelingprep.com/images-New-jpg/NOV.jpg,http://www.nov.com,Oil & Gas - Services,Energy,29.7604267,-95.3698028
NWSA,News Corporation,New york city,New york,United states of america,16,Low,10th percentile,0,5.6,10.7,High,24.5814978,8.12E+09,Nasdaq Global Select,Robert Thomson,https://financialmodelingprep.com/images-New-jpg/NWSA.jpg,http://www.newscorp.com,Entertainment,Consumer Cyclical,40.7127753,-74.0059728
KIM,Kimco Realty Corporation,New hyde park,New york,United states of america,14,Low,5th percentile,4.4,4,5.7,,41.36518771,8.17E+09,New York Stock Exchange,Conor C. Flynn,https://financialmodelingprep.com/images-New-jpg/KIM.jpg,http://www.kimcorealty.com,REITs,Real Estate,40.7351018,-73.6879082
WLK,Westlake Chemical Corporation,Houston,Texas,United states of america,37,High,76th percentile,21.3,4.7,11.2,Moderate,6.014810337,8.20E+09,New York Stock Exchange,Albert Chao,https://financialmodelingprep.com/images-New-jpg/WLK.jpg,http://www.westlake.com,Chemicals,Basic Materials,29.7604267,-95.3698028
ZAYO,Zayo Group Holdings Inc.,Boulder,Colorado,United states of america,30,Medium,53rd percentile,8.8,12.5,8.3,Low,51.70753065,8.23E+09,New York Stock Exchange,Daniel P. Caruso,https://financialmodelingprep.com/images-New-jpg/ZAYO.jpg,http://www.zayo.com,Communication Equipment,Technology,40.0149856,-105.2705456
ATO.PA,Atos SE,Bezons,Ile-de-france,France,14,Negligible,5th percentile,0,8,6,Moderate,36.69302924,8.25E+09,Paris,Not Available,https://financialmodelingprep.com/images-New-jpg/ATO.PA.jpg,http://www.atos.net,Information Technology Services,Technology,48.925687,2.215847
VOYA,Voya Financial Inc.,New york city,New york,United states of america,23,Medium,28th percentile,1.8,12.2,8.7,Low,51.918286,8.26E+09,New York Stock Exchange,Rodney O. Martin,https://financialmodelingprep.com/images-New-jpg/VOYA.jpg,https://www.voya.com,Asset Management,Financial Services,40.7127753,-74.0059728
DXC,DXC Technology Company,Tysons corner,Virginia,United states of america,16,Low,8th percentile,0,9.9,5.8,Moderate,-29.3022381,8.31E+09,New York Stock Exchange,J. Michael Lawrie,https://financialmodelingprep.com/images-New-jpg/DXC.jpg,http://www.dxc.technology,Application Software,Technology,38.9187222,-77.2310925
IONS,Ionis Pharmaceuticals Inc.,Carlsbad,California,United states of america,32,High,61st percentile,0.2,22.4,9.5,,11.74620792,8.38E+09,Nasdaq Global Select,Stanley T. Crooke,https://financialmodelingprep.com/images-New-jpg/IONS.jpg,http://www.ionispharma.com,Biotechnology,Healthcare,33.1580933,-117.3505939
PROX.BR,Proximus PLC,Bruxelles,Bruxelles-capitale,Belgium,19,Negligible,17th percentile,2,9,8,Moderate,8.044030483,8.41E+09,Brussels,Not Available,https://financialmodelingprep.com/images-New-jpg/PROX.BR.jpg,http://www.proximus.com,Telecom Services,Communication Services,50.8503396,4.3517103
NWL,Newell Brands Inc.,Atlanta,Georgia,United states of america,15,Low,8th percentile,6.1,5.3,4,Moderate,3.388918774,8.47E+09,New York Stock Exchange,Michael B. Polk,https://financialmodelingprep.com/images-New-jpg/NWL.jpg,http://www.newellbrands.com,Consumer Packaged Goods,Consumer Defensive,33.7489954,-84.3879824
RNR,RenaissanceRe Holdings Ltd.,Pembroke,0,Bermuda,30,Severe,56th percentile,2,11,17,0,46.6118175,8.52E+09,New York Stock Exchange,Kevin O'Donnell,https://financialmodelingprep.com/images-New-jpg/RNR.jpg,http://www.renre.com,Insurance - Specialty,Financial Services,33.791638,-84.389488
ALB,Albemarle Corporation,Charlotte,North carolina,United states of america,37,High,76th percentile,19.7,8.9,8.7,Low,-5.229012586,8.57E+09,New York Stock Exchange,Luther C. Kissam,https://financialmodelingprep.com/images-New-jpg/ALB.jpg,http://www.albemarle.com,Chemicals,Basic Materials,35.2270869,-80.8431267
TRGP,Targa Resources Inc.,Houston,Texas,United states of america,37,Severe,76th percentile,15,16,6,,13.35369239,8.62E+09,New York Stock Exchange,Joe Bob Perkins,https://financialmodelingprep.com/images-New-jpg/TRGP.jpg,http://www.targaresources.com,Oil & Gas - Midstream,Energy,29.7604267,-95.3698028
TTC,Toro Company (The),Bloomington,Minnesota,United states of america,20,Negligible,18th percentile,6,10,4,Moderate,42.57337151,8.62E+09,New York Stock Exchange,Richard M. Olson,https://financialmodelingprep.com/images-New-jpg/TTC.jpg,http://www.thetorocompany.com,Industrial Products,Industrials,44.840798,-93.2982799
BEP,Brookfield Renewable Partners L.P.,Hamilton,0,Bermuda,23,Medium,31st percentile,2.7,13,7.7,0,80.03861004,8.63E+09,New York Stock Exchange,Sachin Shah,https://financialmodelingprep.com/images-New-jpg/BEP.jpg,https://renewableops.brookfield.com,Utilities - Independent Power Producers,Utilities,33.791638,-84.389488
DVN,Devon Energy Corporation,Oklahoma city,Oklahoma,United states of america,34,High,68th percentile,16.9,11.1,6.1,Low,15.2173913,8.64E+09,New York Stock Exchange,David A. Hager,https://financialmodelingprep.com/images-New-jpg/DVN.jpg,http://www.devonenergy.com,Oil & Gas - E&P,Energy,35.4675602,-97.5164276
VIPS,Vipshop Holdings Limited American Depositary Shares each representing two,Guangzhou,Guangdong,China,21,Medium,24th percentile,4,9.4,7.8,Low,159.5238095,8.64E+09,New York Stock Exchange,Ya Eric Shen,https://financialmodelingprep.com/images-New-jpg/VIPS.jpg,http://www.vip.com,Retail - Defensive,Consumer Defensive,23.12911,113.264385
REI-UN.TO,RioCan Real Estate Investment Trust,Toronto,Ontario,Canada,18,Negligible,14th percentile,5,6,6,,12.43697479,8.65E+09,Toronto,Not Available,https://financialmodelingprep.com/images-New-jpg/REI-UN.TO.jpg,http://www.riocan.com,REIT—Retail,Real Estate,43.653226,-79.3831843
ONEX.TO,Onex Corporation,Toronto,Ontario,Canada,17,Negligible,10th percentile,0,4,13,,10.51782112,8.66E+09,Toronto,Not Available,https://financialmodelingprep.com/images-New-jpg/ONEX.TO.jpg,http://www.onex.com,Conglomerates,Industrials,43.653226,-79.3831843
RL,Ralph Lauren Corporation,New york city,New york,United states of america,15,Negligible,6th percentile,1,7,7,Moderate,13.29982602,8.67E+09,New York Stock Exchange,Patrice Louvet,https://financialmodelingprep.com/images-New-jpg/RL.jpg,http://www.ralphlauren.com,Manufacturing - Apparel & Furniture,Consumer Cyclical,40.7127753,-74.0059728
SCI,Service Corporation International,Houston,Texas,United states of america,15,Negligible,7th percentile,0,10,5,Moderate,14.33184302,8.83E+09,New York Stock Exchange,Thomas L. Ryan,https://financialmodelingprep.com/images-New-jpg/SCI.jpg,http://www.sci-corp.com,Personal Services,Consumer Cyclical,29.7604267,-95.3698028
JLL,Jones Lang LaSalle Incorporated,Chicago,Illinois,United states of america,7,Negligible,1st percentile,1.3,2.5,3.7,Low,37.51184834,8.84E+09,New York Stock Exchange,Christian Ulbrich,https://financialmodelingprep.com/images-New-jpg/JLL.jpg,http://www.jll.com,Real Estate Services,Real Estate,41.8781136,-87.6297982
CF,CF Industries Holdings Inc.,Deerfield,Illinois,United states of america,48,Severe,93rd percentile,24.4,16.2,7.8,Moderate,9.721903011,8.85E+09,New York Stock Exchange,W. Anthony Will,https://financialmodelingprep.com/images-New-jpg/CF.jpg,http://www.cfindustries.com,Agriculture,Basic Materials,42.1711365,-87.8445119
CMA,Comerica Incorporated,Dallas,Texas,United states of america,27,Medium,42nd percentile,2.1,11.9,12.8,Moderate,4.454796914,8.88E+09,New York Stock Exchange,Ralph W. Babb,https://financialmodelingprep.com/images-New-jpg/CMA.jpg,https://www.comerica.com,Banks,Financial Services,32.7766642,-96.7969879
UAA,Under Armour Inc. Class A,Baltimore,Maryland,United states of america,16,Low,10th percentile,1.6,7.6,7.1,Moderate,22.24108659,8.89E+09,New York Stock Exchange,Kevin A. Plank,https://financialmodelingprep.com/images-New-jpg/UAA.jpg,http://www.underarmour.com,Manufacturing - Apparel & Furniture,Consumer Cyclical,39.2903848,-76.6121893
UGI,UGI Corporation,King of prussia,Pennsylvania,United states of america,40,Severe,81st percentile,17.6,15.1,7.4,Moderate,-15.35145267,8.90E+09,New York Stock Exchange,Not Available,https://financialmodelingprep.com/images-New-jpg/UGI.jpg,http://www.ugicorp.com,Utilities - Regulated,Utilities,40.1012856,-75.3835525
CTC-A.TO,Canadian Tire Corporation  Limited,Toronto,Ontario,Canada,16,Negligible,8th percentile,2,8,6,Low,4.283262443,8.92E+09,Toronto,Not Available,https://financialmodelingprep.com/images-New-jpg/CTC-A.TO.jpg,http://www.corp.canadiantire.ca,Specialty Retail,Consumer Cyclical,43.653226,-79.3831843
SNA,Snap-On Incorporated,Kenosha,Wisconsin,United states of america,32,High,60th percentile,10.5,13,8,Moderate,16.59439741,8.96E+09,New York Stock Exchange,Nicholas T. Pinchuk,https://financialmodelingprep.com/images-New-jpg/SNA.jpg,http://www.snapon.com,Industrial Products,Industrials,42.5847425,-87.8211854
CSL,Carlisle Companies Incorporated,Scottsdale,Arizona,United states of america,45,Severe,89th percentile,20,16.1,8.6,,61.00278552,8.98E+09,New York Stock Exchange,D. Christian Koch,https://financialmodelingprep.com/images-New-jpg/CSL.jpg,http://www.carlisle.com,Autos,Consumer Cyclical,33.4941704,-111.9260519
IPG,Interpublic Group of Companies Inc. (The),New york city,New york,United states of america,16,Low,9th percentile,0.1,10,6.1,Moderate,11.97285507,9.00E+09,New York Stock Exchange,Michael I. Roth,https://financialmodelingprep.com/images-New-jpg/IPG.jpg,http://www.interpublic.com,Advertising & Marketing Services,Consumer Cyclical,40.7127753,-74.0059728
LII,Lennox International Inc.,Richardson,Texas,United states of america,27,Medium,42nd percentile,9.4,10.4,6.8,Low,11.47308782,9.09E+09,New York Stock Exchange,Todd M. Bluedorn,https://financialmodelingprep.com/images-New-jpg/LII.jpg,http://www.lennoxinternational.com,Industrial Products,Industrials,32.9483335,-96.7298519
GGG,Graco Inc.,Minneapolis,Minnesota,United states of america,32,High,61st percentile,10.1,14,7.8,,24.25328554,9.12E+09,New York Stock Exchange,Patrick J. McHale,https://financialmodelingprep.com/images-New-jpg/GGG.jpg,http://www.graco.com,Industrial Products,Industrials,44.977753,-93.2650108
IRM,Iron Mountain Incorporated (Delaware)Common Stock REIT,Boston,Massachusetts,United states of america,16,Low,8th percentile,5.8,4.2,5.7,,-1.666152422,9.16E+09,New York Stock Exchange,William L. Meaney,https://financialmodelingprep.com/images-New-jpg/IRM.jpg,http://www.ironmountain.com,Business Services,Industrials,42.3600825,-71.0588801
OHI,Omega Healthcare Investors Inc.,Hunt valley,Maryland,United states of america,17,Low,12th percentile,5.4,6,5.9,Low,20.48364154,9.18E+09,New York Stock Exchange,C. Taylor Pickett,https://financialmodelingprep.com/images-New-jpg/OHI.jpg,http://www.omegahealthcare.com,REITs,Real Estate,39.4900013,-76.6585074
RGA,Reinsurance Group of America Incorporated,Chesterfield missouri,Missouri,United states of america,28,Medium,46th percentile,2.9,9.9,15.2,,16.28039649,9.19E+09,New York Stock Exchange,Anna Manning,https://financialmodelingprep.com/images-New-jpg/RGA.jpg,http://www.rgare.com,Insurance - Specialty,Financial Services,38.6631083,-90.5770675
OGE,OGE Energy Corporation,Oklahoma city,Oklahoma,United states of america,40,Severe,82nd percentile,23.3,11.6,5.6,Low,13.4728247,9.26E+09,New York Stock Exchange,Sean Trauschke,https://financialmodelingprep.com/images-New-jpg/OGE.jpg,http://www.oge.com,Utilities - Regulated,Utilities,35.4675602,-97.5164276
RPM,RPM International Inc.,Medina,Ohio,United states of america,45,Severe,89th percentile,21.6,13.3,10.2,Moderate,30.58863559,9.33E+09,New York Stock Exchange,Frank C. Sullivan,https://financialmodelingprep.com/images-New-jpg/RPM.jpg,http://www.rpminc.com,Chemicals,Basic Materials,41.143245,-81.8552196
COV.PA,Covivio,Metz,Grand est,France,12,Negligible,3rd percentile,2,4,6,,20.19002375,9.35E+09,Paris,Not Available,https://financialmodelingprep.com/images-New-jpg/COV.PA.jpg,http://www.covivio.eu,REIT—Diversified,Real Estate,49.1193089,6.1757156
NRG,NRG Energy Inc.,Princeton,New jersey,United states of america,40,Severe,81st percentile,20.6,11.4,8,Moderate,0.378787879,9.35E+09,New York Stock Exchange,Mauricio Gutierrez,https://financialmodelingprep.com/images-New-jpg/NRG.jpg,http://www.nrgenergy.com,Utilities - Independent Power Producers,Utilities,40.3572976,-74.6672226
AAP,Advance Auto Parts Inc W/I,Raleigh,North carolina,United states of america,13,Negligible,4th percentile,0,9,4,Moderate,1.714721199,9.37E+09,New York Stock Exchange,Thomas R. Greco,https://financialmodelingprep.com/images-New-jpg/AAP.jpg,https://shop.advanceautoparts.com,Retail - Apparel & Specialty,Consumer Cyclical,35.7795897,-78.6381787
LAMR,Lamar Advertising Company,Baton rouge,Louisiana,United states of america,18,Low,14th percentile,0.1,10.1,7.9,,29.02572998,9.42E+09,Nasdaq Global Select,Sean E. Reilly,https://financialmodelingprep.com/images-New-jpg/LAMR.jpg,http://www.lamar.com,REITs,Real Estate,30.4514677,-91.1871466
PKG,Packaging Corporation of America,Lake forest,Illinois,United states of america,19,Low,18th percentile,13.1,2.1,4.2,Moderate,34.18404026,9.43E+09,New York Stock Exchange,Mark W. Kowlzan,https://financialmodelingprep.com/images-New-jpg/PKG.jpg,http://www.packagingcorp.com,Packaging & Containers,Consumer Cyclical,42.2586342,-87.840625
MRO,Marathon Oil Corporation,Houston,Texas,United states of america,43,Severe,86th percentile,23.7,10.9,8.6,Moderate,-5.29986053,9.44E+09,New York Stock Exchange,Lee M. Tillman,https://financialmodelingprep.com/images-New-jpg/MRO.jpg,http://www.marathonoil.com,Oil & Gas - E&P,Energy,29.7604267,-95.3698028
EMN,Eastman Chemical Company,Kingsport,Tennessee,United states of america,28,Medium,46th percentile,13.1,6.7,7.9,Moderate,8.411981945,9.46E+09,New York Stock Exchange,Mark J. Costa,https://financialmodelingprep.com/images-New-jpg/EMN.jpg,http://www.eastman.com,Chemicals,Basic Materials,36.548434,-82.5618186
FRT,Federal Realty Investment Trust,Rockville,Maryland,United states of america,16,Low,9th percentile,4,5,7.1,Low,9.056252118,9.47E+09,New York Stock Exchange,Donald C. Wood,https://financialmodelingprep.com/images-New-jpg/FRT.jpg,http://www.federalrealty.com,REITs,Real Estate,39.0839973,-77.1527578
MLCO,Melco Resorts & Entertainment Limited,Hong kong,Hong kong,Hong kong,27,Medium,43rd percentile,3.9,11.8,11.2,Moderate,37.17366629,9.50E+09,Nasdaq Global Select,Lawrence Yau Ho,https://financialmodelingprep.com/images-New-jpg/MLCO.jpg,http://www.melco-resorts.com,Travel & Leisure,Consumer Cyclical,33.791638,-84.389488
PUB.PA,Publicis Groupe S.A.,Paris,Ile-de-france,France,17,Negligible,11th percentile,0,9,8,Moderate,-19.40894569,9.54E+09,Paris,Not Available,https://financialmodelingprep.com/images-New-jpg/PUB.PA.jpg,http://www.publicisgroupe.com,Advertising Agencies,Communication Services,48.856614,2.3522219
RAND.AS,Randstad N.V.,Diemen,Noord-holland,Netherlands,12,Negligible,3rd percentile,0,9,4,Moderate,35.79446246,9.64E+09,Amsterdam,Not Available,https://financialmodelingprep.com/images-New-jpg/RAND.AS.jpg,http://www.randstad.com,Staffing & Employment Services,Industrials,52.3389926,4.9591888
MHK,Mohawk Industries Inc.,Calhoun,Georgia,United states of america,15,Low,7th percentile,5.7,4.5,4.8,Moderate,16.60396717,9.68E+09,New York Stock Exchange,Jeffrey S. Lorberbaum,https://financialmodelingprep.com/images-New-jpg/MHK.jpg,http://www.mohawkind.com,Manufacturing - Apparel & Furniture,Consumer Cyclical,34.502587,-84.9510542
NBL,Noble Energy Inc.,Houston,Texas,United states of america,41,Severe,82nd percentile,21.3,11.2,8.2,Moderate,32.40938166,9.71E+09,New York Stock Exchange,David L. Stover,https://financialmodelingprep.com/images-New-jpg/NBL.jpg,http://www.nobleenergyinc.com,Oil & Gas - E&P,Energy,29.7604267,-95.3698028
JMT.LS,Jeronimo Martins  SGPS  S.A.,Lisboa,0,Portugal,17,Negligible,11th percentile,3,7,7,Moderate,41.8762089,9.74E+09,Lisbon,Not Available,https://financialmodelingprep.com/images-New-jpg/JMT.LS.jpg,http://www.jeronimomartins.com,Food Distribution,Consumer Defensive,33.791638,-84.389488
PTC,PTC Inc.,Boston,Massachusetts,United states of america,19,Low,16th percentile,1.3,11.2,6.5,Moderate,-9.662243667,9.79E+09,Nasdaq Global Select,James E. Heppelmann,https://financialmodelingprep.com/images-New-jpg/PTC.jpg,http://www.ptc.com,Application Software,Technology,42.3600825,-71.0588801
Z,Zillow Group Inc.,Guernsey,Guernsey,Guernsey,30,High,55th percentile,3.3,15.8,11.1,Moderate,45.47181761,9.82E+09,Nasdaq Global Select,Spencer M. Rascoff,https://financialmodelingprep.com/images-New-jpg/Z.jpg,http://www.zillowgroup.com,Real Estate Services,Real Estate,33.791638,-84.389488
NDSN,Nordson Corporation,Westlake,Ohio,United states of america,30,High,56th percentile,10.8,13,6.5,Low,36.43904483,9.83E+09,Nasdaq Global Select,Michael F. Hilton,https://financialmodelingprep.com/images-New-jpg/NDSN.jpg,http://www.nordson.com,Industrial Products,Industrials,41.4553232,-81.9179173
ON,ON Semiconductor Corporation,Phoenix,Arizona,United states of america,25,Medium,38th percentile,12.9,6.3,6.1,,47.66807995,9.83E+09,Nasdaq Global Select,Keith D. Jackson,https://financialmodelingprep.com/images-New-jpg/ON.jpg,http://www.onsemi.com,Semiconductors,Technology,33.4483771,-112.0740373
VIAB,Viacom Inc.,New york city,New york,United states of america,15,Low,6th percentile,0.1,6.6,8,Significant,-5.758754864,9.86E+09,Nasdaq Global Select,Not Available,https://financialmodelingprep.com/images-New-jpg/VIAB.jpg,http://www.viacom.com,Entertainment,Consumer Cyclical,40.7127753,-74.0059728
FBHS,Fortune Brands Home & Security Inc.,Deerfield,Illinois,United states of america,26,Medium,39th percentile,14.3,3.7,7.7,,71.99262964,9.88E+09,New York Stock Exchange,Christopher J. Klein,https://financialmodelingprep.com/images-New-jpg/FBHS.jpg,http://www.fbhs.com,Manufacturing - Apparel & Furniture,Consumer Cyclical,42.1711365,-87.8445119
DOX,Amdocs Limited,Chesterfield missouri,Missouri,United states of america,18,Low,13th percentile,1.2,10.7,5.9,,23.23318539,9.92E+09,Nasdaq Global Select,Eli Gelman,https://financialmodelingprep.com/images-New-jpg/DOX.jpg,http://www.amdocs.com,Application Software,Technology,38.6631083,-90.5770675
ETFC,E*TRADE Financial Corporation,New york city,Virginia,United states of america,28,Medium,46th percentile,1.8,11.7,14.4,Moderate,3.39562443,9.92E+09,Nasdaq Global Select,Karl A. Roessner,https://financialmodelingprep.com/images-New-jpg/ETFC.jpg,https://www.etrade.com,Brokers & Exchanges,Financial Services,40.7127753,-74.0059728
UMI.BR,Umicore SA,Bruxelles,Bruxelles-capitale,Belgium,32,Severe,62nd percentile,16,7,9,Moderate,24.38324727,9.92E+09,Brussels,Not Available,https://financialmodelingprep.com/images-New-jpg/UMI.BR.jpg,http://www.umicore.com,Pollution & Treatment Controls,Industrials,50.8503396,4.3517103
CCL-B.TO,CCL Industries Inc.,Toronto,Ontario,Canada,19,Negligible,16th percentile,13,2,5,Moderate,10.50739113,9.97E+09,Toronto,Not Available,https://financialmodelingprep.com/images-New-jpg/CCL-B.TO.jpg,http://www.cclind.com,Packaging & Containers,Consumer Cyclical,43.7615377,-79.4110794
AGNC,AGNC Investment Corp.,Bethesda,Maryland,United states of america,20,Medium,21st percentile,3.8,6.5,10,,0.798175599,1.00E+10,Nasdaq Global Select,Gary D. Kain,https://financialmodelingprep.com/images-New-jpg/AGNC.jpg,http://www.agnc.com,REITs,Real Estate,38.984652,-77.0947092
AC.PA,Accor SA,Issy-les-moulineaux,Ile-de-france,France,19,Negligible,16th percentile,7,7,5,Moderate,12.50336836,1.01E+10,Paris,Not Available,https://financialmodelingprep.com/images-New-jpg/AC.PA.jpg,http://group.accor.com/en,Lodging,Consumer Cyclical,48.8245306,2.2743419
SEIC,SEI Investments Company,Oaks,Pennsylvania,United states of america,28,Medium,48th percentile,3,12.6,12.7,Low,41.73160173,1.01E+10,Nasdaq Global Select,Alfred P. West,https://financialmodelingprep.com/images-New-jpg/SEIC.jpg,http://www.seic.com,Asset Management,Financial Services,40.133503,-75.4636031
AABA,Altaba Inc.,New york,New york,United states of america,33,High,64th percentile,3.2,14.4,15.1,Significant,-66.12012427,1.02E+10,Nasdaq Global Select,Thomas J. Mcinerney,https://financialmodelingprep.com/images-New-jpg/AABA.jpg,http://www.altaba.com,Asset Management,Financial Services,40.7127753,-74.0059728
FGR.PA,Eiffage SA,Velizy villacoublay,Ile-de-france,France,36,Severe,73rd percentile,7,16,14,Low,39.80263158,1.02E+10,Paris,Not Available,https://financialmodelingprep.com/images-New-jpg/FGR.PA.jpg,http://www.eiffage.com,Engineering & Construction,Industrials,48.787899,2.190408
GLPI,Gaming and Leisure Properties Inc.,Wyomissing,Pennsylvania,United states of america,20,Low,20th percentile,6.1,7.1,6.8,,33.24048282,1.02E+10,Nasdaq Global Select,Peter M. Carlino,https://financialmodelingprep.com/images-New-jpg/GLPI.jpg,http://www.glpropinc.com,REITs,Real Estate,40.329537,-75.9652117
LPT,Liberty Property Trust,Wayne,Pennsylvania,United states of america,17,Negligible,10th percentile,5,6,6,Low,43.38586437,1.02E+10,New York Stock Exchange,William P. Hankowsky,https://financialmodelingprep.com/images-New-jpg/LPT.jpg,http://www.libertyproperty.com,REITs,Real Estate,40.0415996,-75.3698895
CCK,Crown Holdings Inc.,Yardley,Pennsylvania,United states of america,19,Negligible,18th percentile,13,2,4,Significant,74.50084195,1.03E+10,New York Stock Exchange,Timothy J. Donahue,https://financialmodelingprep.com/images-New-jpg/CCK.jpg,http://www.crowncork.com,Packaging & Containers,Consumer Cyclical,40.245664,-74.8459972
LKQ,LKQ Corporation,Chicago,Illinois,United states of america,14,Low,5th percentile,4.6,5.3,4.3,Low,50.44247788,1.03E+10,Nasdaq Global Select,Dominick Zarcone,https://financialmodelingprep.com/images-New-jpg/LKQ.jpg,http://www.lkqcorp.com,Autos,Consumer Cyclical,41.8781136,-87.6297982
EDPR.LS,EDP Renovaveis  S.A.,Madrid,Madrid,Spain,85,Severe,99th percentile,82,86,90,Significant,34.96143959,1.04E+10,Lisbon,Not Available,https://financialmodelingprep.com/images-New-jpg/EDPR.LS.jpg,http://www.edpr.com/es,Utilities—Renewable,Utilities,40.4167754,-3.7037902
CLR,Continental Resources Inc.,Oklahoma city,Oklahoma,United states of america,54,Severe,97th percentile,28.3,15,10.8,Low,-14.65538691,1.05E+10,New York Stock Exchange,Harold G. Hamm,https://financialmodelingprep.com/images-New-jpg/CLR.jpg,http://www.contres.com,Oil & Gas - E&P,Energy,35.4675602,-97.5164276
HSIC,Henry Schein Inc.,Melville,New york,United states of america,15,Low,7th percentile,3.7,5.7,5.9,Moderate,8.346865866,1.05E+10,Nasdaq Global Select,Stanley M. Bergman,https://financialmodelingprep.com/images-New-jpg/HSIC.jpg,http://www.henryschein.com,Medical Distribution,Healthcare,40.7934322,-73.4151214
REG,Regency Centers Corporation,Jacksonville,Florida,United states of america,11,Low,2nd percentile,3.1,3,4.4,,7.515337423,1.05E+10,New York Stock Exchange,Martin E. Stein,https://financialmodelingprep.com/images-New-jpg/REG.jpg,http://www.regencycenters.com,REITs,Real Estate,30.3321838,-81.655651
VER,VEREIT Inc.,Phoenix,Arizona,United states of america,19,Low,16th percentile,5.5,6.1,7.3,Significant,29.23076923,1.05E+10,New York Stock Exchange,Glenn J. Rufrano,https://financialmodelingprep.com/images-New-jpg/VER.jpg,http://www.vereit.com,REITs,Real Estate,33.4483771,-112.0740373
APA,Apache Corporation,Houston,Texas,United states of america,38,High,77th percentile,21.2,7.8,8.8,Low,-2.514285714,1.06E+10,New York Stock Exchange,John J. Christmann,https://financialmodelingprep.com/images-New-jpg/APA.jpg,http://www.apachecorp.com,Oil & Gas - E&P,Energy,29.7604267,-95.3698028
DVA,DaVita Inc.,Denver,Colorado,United states of america,21,Medium,23rd percentile,0.1,11.8,9.1,Moderate,45.8025651,1.06E+10,New York Stock Exchange,Kent J. Thiry,https://financialmodelingprep.com/images-New-jpg/DVA.jpg,http://www.davita.com,Health Care Providers,Healthcare,39.7392358,-104.990251
NN.AS,NN Group N.V.,S-gravenhage,Zuid-holland,Netherlands,16,Negligible,9th percentile,1,7,7,Moderate,-2.816091954,1.06E+10,Amsterdam,Not Available,https://financialmodelingprep.com/images-New-jpg/NN.AS.jpg,http://www.nn-group.com,Insurance—Diversified,Financial Services,52.0704978,4.3006999
PKI,PerkinElmer Inc.,Waltham,Massachusetts,United states of america,21,Medium,24th percentile,1.6,12.6,7.1,Low,23.61553151,1.06E+10,New York Stock Exchange,Robert F. Friel,https://financialmodelingprep.com/images-New-jpg/PKI.jpg,http://www.perkinelmer.com,Medical Diagnostics & Research,Healthcare,42.3764852,-71.2356113
URI,United Rentals Inc.,Stamford,Connecticut,United states of america,19,Low,18th percentile,5.3,7.3,6.8,Low,62.65483273,1.06E+10,New York Stock Exchange,Michael J. Kneeland,https://financialmodelingprep.com/images-New-jpg/URI.jpg,http://www.unitedrentals.com,Consulting & Outsourcing,Industrials,41.0534302,-73.5387341
ALO.PA,Alstom SA,Saint-ouen,Ile-de-france,France,16,Negligible,9th percentile,3,5,8,Significant,3.201368524,1.07E+10,Paris,Not Available,https://financialmodelingprep.com/images-New-jpg/ALO.PA.jpg,http://www.alstom.com,Specialty Industrial Machinery,Industrials,48.911856,2.333764
CPT,Camden Property Trust,Houston,Texas,United states of america,18,Negligible,14th percentile,5,6,7,,20.49971607,1.07E+10,New York Stock Exchange,Richard J. Campo,https://financialmodelingprep.com/images-New-jpg/CPT.jpg,http://www.camdenliving.com,REITs,Real Estate,29.7604267,-95.3698028
KPN.AS,Koninklijke KPN N.V.,Den haag,Zuid-holland,Netherlands,15,Negligible,6th percentile,2,7,6,Moderate,2.734375,1.07E+10,Amsterdam,Not Available,https://financialmodelingprep.com/images-New-jpg/KPN.AS.jpg,http://www.kpn.com,Telecom Services,Communication Services,52.0704978,4.3006999
TXT,Textron Inc.,Providence,Rhode island,United states of america,39,High,78th percentile,11,20.2,7.3,Significant,-3.022396173,1.07E+10,New York Stock Exchange,Scott C. Donnelly,https://financialmodelingprep.com/images-New-jpg/TXT.jpg,http://www.textron.com,Aerospace & Defense,Industrials,41.8239891,-71.4128343
TRMB,Trimble Inc.,Sunnyvale,California,United states of america,12,Negligible,3rd percentile,2,5,5,Low,26.67882103,1.08E+10,Nasdaq Global Select,Steven W. Berglund,https://financialmodelingprep.com/images-New-jpg/TRMB.jpg,http://www.trimble.com,Computer Hardware,Technology,37.36883,-122.0363496
NI,NiSource Inc,Merrillville,Indiana,United states of america,32,High,60th percentile,14.7,10.3,6.8,Significant,9.822485207,1.09E+10,New York Stock Exchange,Joseph Hamrock,https://financialmodelingprep.com/images-New-jpg/NI.jpg,http://www.nisource.com,Utilities - Regulated,Utilities,41.4828144,-87.3328139
FDS,FactSet Research Systems Inc.,Norwalk,Connecticut,United states of america,22,Medium,26th percentile,2.7,10.8,8.4,,34.06285914,1.10E+10,New York Stock Exchange,F. Philip Snow,https://financialmodelingprep.com/images-New-jpg/FDS.jpg,http://www.factset.com,Brokers & Exchanges,Financial Services,41.117744,-73.4081575
BAH,Booz Allen Hamilton Holding Corporation,Mc lean,Virginia,United states of america,22,Medium,26th percentile,1.2,12.9,7.9,Moderate,57.82116707,1.11E+10,New York Stock Exchange,Horacio Rozanski,https://financialmodelingprep.com/images-New-jpg/BAH.jpg,http://www.boozallen.com,Business Services,Industrials,38.9338676,-77.1772604
CVE,Cenovus Energy Inc,Calgary,Alberta,Canada,34,High,67th percentile,19.5,7.4,6.8,Low,44.38122333,1.11E+10,New York Stock Exchange,Alexander J. Pourbaix,https://financialmodelingprep.com/images-New-jpg/CVE.jpg,http://www.cenovus.com,Oil & Gas - Integrated,Energy,51.0447331,-114.0718831
LNC,Lincoln National Corporation,Radnor,Pennsylvania,United states of america,21,Medium,24th percentile,1.4,8.1,11.8,Moderate,15.00682128,1.11E+10,New York Stock Exchange,Dennis R. Glass,https://financialmodelingprep.com/images-New-jpg/LNC.jpg,http://www.lfg.com,Insurance - Life,Financial Services,40.0462208,-75.3599105
PNW,Pinnacle West Capital Corporation,Phoenix,Arizona,United states of america,28,Medium,45th percentile,11.4,10.3,6,Moderate,5.551643192,1.11E+10,New York Stock Exchange,Donald E. Brandt,https://financialmodelingprep.com/images-New-jpg/PNW.jpg,http://www.pinnaclewest.com,Utilities - Regulated,Utilities,33.4483771,-112.0740373
TSCO,Tractor Supply Company,Brentwood,Tennessee,United states of america,16,Low,9th percentile,3.7,8.2,4.3,Moderate,11.98465964,1.11E+10,Nasdaq Global Select,Gregory A. Sandfort,https://financialmodelingprep.com/images-New-jpg/TSCO.jpg,http://www.tractorsupplyco.com,Retail - Apparel & Specialty,Consumer Cyclical,36.0331164,-86.7827772
BVI.PA,Bureau Veritas SA,Neuilly-sur-seine,Ile-de-france,France,16,Negligible,9th percentile,0,10,7,Moderate,30.6741573,1.12E+10,Paris,Not Available,https://financialmodelingprep.com/images-New-jpg/BVI.PA.jpg,http://www.bureauveritas.com,Consulting Services,Industrials,48.884831,2.26851
WTR,Aqua America Inc.,Bryn mawr,Pennsylvania,United states of america,39,Severe,79th percentile,20,12,7,Low,37.29160573,1.13E+10,New York Stock Exchange,Christopher H. Franklin,https://financialmodelingprep.com/images-New-jpg/WTR.jpg,https://www.aquaamerica.com,Utilities - Regulated,Utilities,40.0230237,-75.3151772
ARMK,Aramark,Philadelphia,Pennsylvania,United states of america,29,Medium,50th percentile,6.3,15.5,7,Significant,49.81014843,1.13E+10,New York Stock Exchange,Eric J. Foss,https://financialmodelingprep.com/images-New-jpg/ARMK.jpg,http://www.aramark.com,Restaurants,Consumer Cyclical,39.9525839,-75.1652215
MYL,Mylan N.V.,Hatfield,Hertfordshire,United kingdom,38,High,76th percentile,2.5,19.1,16,High,-26.64233577,1.13E+10,Nasdaq Global Select,Heather Bresch,https://financialmodelingprep.com/images-New-jpg/MYL.jpg,http://www.mylan.com,Drug Manufacturers,Healthcare,51.763366,-0.22309
TIT.BR,Telecom Italia S.p.A.,Milan,Milano,Italy,17,Negligible,12th percentile,3,8,7,Significant,12.24489796,1.13E+10,Brussels,Not Available,https://financialmodelingprep.com/images-New-jpg/TIT.BR.jpg,http://www.telecomitalia.com,Telecom Services,Communication Services,45.4642035,9.189982
AVY,Avery Dennison Corporation,Glendale,California,United states of america,19,Low,17th percentile,13.3,1.6,4.3,Low,45.63063565,1.14E+10,New York Stock Exchange,Mitchell R. Butier,https://financialmodelingprep.com/images-New-jpg/AVY.jpg,http://www.averydennison.com,Industrial Products,Industrials,34.1425078,-118.255075
CNP.PA,CNP Assurances SA,Paris,Ile-de-france,France,19,Negligible,17th percentile,0,8,11,Low,-4.265658747,1.14E+10,Paris,Not Available,https://financialmodelingprep.com/images-New-jpg/CNP.PA.jpg,http://www.cnp.fr,Insurance—Life,Financial Services,48.856614,2.3522219
JEC,Jacobs Engineering Group Inc.,Dallas,Texas,United states of america,54,Medium,31st percentile,55,47,61,Significant,54.00273691,1.14E+10,New York Stock Exchange,Steven J. Demetriou,https://financialmodelingprep.com/images-New-jpg/JEC.jpg,http://www.jacobs.com,Engineering & Construction,Industrials,32.7766642,-96.7969879
TER,Teradyne Inc.,North reading,Massachusetts,United states of america,21,Medium,22nd percentile,7.7,6.6,6.4,,117.3040153,1.15E+10,New York Stock Exchange,Mark E. Jagiela,https://financialmodelingprep.com/images-New-jpg/TER.jpg,http://www.teradyne.com,Semiconductors,Technology,42.5750939,-71.0786653
DPZ,Domino's Pizza Inc,Ann arbor,Michigan,United states of america,28,Medium,45th percentile,6.1,14.5,7.1,Moderate,18.46445421,1.16E+10,New York Stock Exchange,J. Patrick Doyle,https://financialmodelingprep.com/images-New-jpg/DPZ.jpg,http://www.dominos.com,Restaurants,Consumer Cyclical,42.2808256,-83.7430378
WU,Western Union Company (The),Denver,Colorado,United states of america,21,Medium,24th percentile,0.1,12.9,8.3,Significant,56.97538101,1.16E+10,New York Stock Exchange,Hikmet Ersek,https://financialmodelingprep.com/images-New-jpg/WU.jpg,http://www.westernunion.com,Banks,Financial Services,39.7392358,-104.990251
Y,Alleghany Corporation,New york city,New york,United states of america,33,Severe,65th percentile,3,13,18,Low,28.2760059,1.17E+10,New York Stock Exchange,Weston M. Hicks,https://financialmodelingprep.com/images-New-jpg/Y.jpg,http://www.alleghany.com,Insurance - Property & Casualty,Financial Services,40.7127753,-74.0059728
NCLH,Norwegian Cruise Line Holdings Ltd.,Miami,Florida,United states of america,28,Medium,47th percentile,13.1,11.1,3.9,Moderate,37.79193206,1.17E+10,New York Stock Exchange,Frank J. Del Rio,https://financialmodelingprep.com/images-New-jpg/NCLH.jpg,http://www.ncl.com,Travel & Leisure,Consumer Cyclical,25.7616798,-80.1917902
JKHY,Jack Henry & Associates Inc.,Monett,Missouri,United states of america,19,Low,17th percentile,0.2,11.5,7.3,,15.13594689,1.18E+10,Nasdaq Global Select,David B. Foss,https://financialmodelingprep.com/images-New-jpg/JKHY.jpg,http://www.jackhenry.com,Business Services,Industrials,36.9289502,-93.9277071
AAL,American Airlines Group Inc.,Fort worth,Texas,United states of america,32,High,60th percentile,11.6,13.7,6.2,Moderate,-10.68203052,1.19E+10,Nasdaq Global Select,W. Douglas Parker,https://financialmodelingprep.com/images-New-jpg/AAL.jpg,http://www.aa.com,Airlines,Industrials,32.7554883,-97.3307658
HST,Host Hotels & Resorts Inc.,Bethesda,Maryland,United states of america,14,Low,6th percentile,4.1,4.8,5.5,,11.27774445,1.19E+10,New York Stock Exchange,James F. Risoleo,https://financialmodelingprep.com/images-New-jpg/HST.jpg,http://www.hosthotels.com,REITs,Real Estate,38.984652,-77.0947092
JBHT,J.B. Hunt Transport Services Inc.,Lowell,Arkansas,United states of america,21,Medium,23rd percentile,6.3,8.4,6.3,Low,25.51590714,1.19E+10,Nasdaq Global Select,John N. Roberts,https://financialmodelingprep.com/images-New-jpg/JBHT.jpg,http://www.jbhunt.com,Transportation & Logistics,Industrials,36.2553543,-94.1307587
ALLE,Allegion plc,Dublin,Dublin,Ireland; republic of,24,Medium,32nd percentile,13.5,4.2,6.2,,56.24137498,1.21E+10,New York Stock Exchange,David D. Petratis,https://financialmodelingprep.com/images-New-jpg/ALLE.jpg,http://www.allegion.com,Consulting & Outsourcing,Industrials,53.3498053,-6.2603097
ALLY,Ally Financial Inc.,Detroit,Michigan,United states of america,25,Medium,36th percentile,0.2,15,9.8,Moderate,34.86319506,1.21E+10,New York Stock Exchange,Jeffrey J. Brown,https://financialmodelingprep.com/images-New-jpg/ALLY.jpg,http://www.ally.com,Banks,Financial Services,42.331427,-83.0457538
SJM,J.M. Smucker Company (The),Orrville,Ohio,United states of america,33,High,66th percentile,10.8,16.4,6.2,Moderate,11.38089635,1.21E+10,New York Stock Exchange,Not Available,https://financialmodelingprep.com/images-New-jpg/SJM.jpg,http://www.smuckers.com,Consumer Packaged Goods,Consumer Defensive,40.8436663,-81.7640212
TAP,Molson Coors Brewing Company Class B,Denver,Colorado,United states of america,19,Low,18th percentile,5.5,7.9,6.1,Moderate,-4.024216524,1.22E+10,New York Stock Exchange,Mark R. Hunter,https://financialmodelingprep.com/images-New-jpg/TAP.jpg,http://www.molsoncoors.com,Beverages - Alcoholic,Consumer Defensive,39.7392358,-104.990251
UHS,Universal Health Services Inc.,King of prussia,Pennsylvania,United states of america,34,High,68th percentile,3.4,19.5,11.1,High,23.07824296,1.23E+10,New York Stock Exchange,Alan B. Miller,https://financialmodelingprep.com/images-New-jpg/UHS.jpg,http://www.uhsinc.com,Health Care Providers,Healthcare,40.1012856,-75.3835525
CA.PA,Carrefour SA,Massy,Ile-de-france,France,19,Negligible,18th percentile,3,9,8,Significant,0.268276325,1.24E+10,Paris,Not Available,https://financialmodelingprep.com/images-New-jpg/CA.PA.jpg,http://www.carrefour.com,Grocery Stores,Consumer Defensive,48.730756,2.27137
CNA,CNA Financial Corporation,Chicago,Illinois,United states of america,30,Severe,56th percentile,2,10,18,Low,1.494903737,1.24E+10,New York Stock Exchange,Dino E. Robusto,https://financialmodelingprep.com/images-New-jpg/CNA.jpg,http://www.cna.com,Insurance - Property & Casualty,Financial Services,41.8781136,-87.6297982
FMC,FMC Corporation,Philadelphia,Pennsylvania,United states of america,37,High,76th percentile,17.6,12.8,6.9,Moderate,55.604053,1.24E+10,New York Stock Exchange,Pierre R. Brondeau,https://financialmodelingprep.com/images-New-jpg/FMC.jpg,http://www.fmc.com,Agriculture,Basic Materials,39.9525839,-75.1652215
PHM,PulteGroup Inc.,Atlanta,Georgia,United states of america,22,Medium,26th percentile,7.6,9.1,5.2,Moderate,49.28818776,1.24E+10,New York Stock Exchange,Ryan R Marshall,https://financialmodelingprep.com/images-New-jpg/PHM.jpg,http://www.pultegroupinc.com,Homebuilding & Construction,Consumer Cyclical,33.7489954,-84.3879824
EXPD,Expeditors International of Washington Inc.,Seattle,Washington,United states of america,19,Low,16th percentile,4,9.9,5,,14.5836393,1.25E+10,Nasdaq Global Select,Jeffrey S. Musser,https://financialmodelingprep.com/images-New-jpg/EXPD.jpg,http://www.expeditors.com,Transportation & Logistics,Industrials,47.6062095,-122.3320708
NTAP,NetApp Inc.,Sunnyvale,California,United states of america,20,Medium,20th percentile,3.2,10.4,6.5,,4.323780794,1.25E+10,Nasdaq Global Select,Not Available,https://financialmodelingprep.com/images-New-jpg/NTAP.jpg,http://www.netapp.com,Computer Hardware,Technology,37.36883,-122.0363496
OTEX,Open Text Corporation,Waterloo,Ontario,Canada,17,Low,11th percentile,1.3,10,5.8,,35.18404908,1.25E+10,Nasdaq Global Select,Not Available,https://financialmodelingprep.com/images-New-jpg/OTEX.jpg,http://www.opentext.com,Application Software,Technology,43.4642578,-80.5204096
ROL,Rollins Inc.,Atlanta,Georgia,United states of america,22,Medium,27th percentile,9.9,6.9,5.4,,-8.144044321,1.25E+10,New York Stock Exchange,Gary W. Rollins,https://financialmodelingprep.com/images-New-jpg/ROL.jpg,http://www.rollins.com,Business Services,Industrials,33.7489954,-84.3879824
IEX,IDEX Corporation,Lake forest,Illinois,United states of america,34,High,66th percentile,10.9,15.2,7.5,Low,36.22683352,1.26E+10,New York Stock Exchange,Andrew K. Silvernail,https://financialmodelingprep.com/images-New-jpg/IEX.jpg,http://www.idexcorp.com,Industrial Products,Industrials,42.2586342,-87.840625
POW.TO,Power Corporation of Canada,Montreal,Quebec,Canada,11,Negligible,2nd percentile,1,3,7,Low,36.36363636,1.27E+10,Toronto,Not Available,https://financialmodelingprep.com/images-New-jpg/POW.TO.jpg,http://www.powercorporation.com,Insurance—Life,Financial Services,45.5016889,-73.567256
VNO,Vornado Realty Trust,New york,New york,United states of america,17,Low,11th percentile,3.8,6.5,6.6,Low,7.206190553,1.27E+10,New York Stock Exchange,Steven Roth,https://financialmodelingprep.com/images-New-jpg/VNO.jpg,http://www.vno.com,REITs,Real Estate,40.7127753,-74.0059728
XRAY,DENTSPLY SIRONA Inc.,Charlotte,North carolina,United states of america,20,Medium,21st percentile,3.2,10.5,6.6,Low,52.08277345,1.28E+10,Nasdaq Global Select,Donald M. Casey,https://financialmodelingprep.com/images-New-jpg/XRAY.jpg,http://www.dentsply.com,Medical Instruments & Equipment,Healthcare,35.2270869,-80.8431267
LBTYA,Liberty Global plc Class A Ordinary Shares,Hammersmith,Middlesex,United kingdom,16,Low,9th percentile,0,9.1,7.1,Low,6.560449859,1.28E+10,Nasdaq Global Select,Michael T. Fries,https://financialmodelingprep.com/images-New-jpg/LBTYA.jpg,http://www.libertyglobal.com,Communication Services,Communication Services,51.491187,-0.223731
SIVB,SVB Financial Group,Medan,Sumatera utara,Indonesia,27,Medium,43rd percentile,2.3,11.5,13.3,,32.18197136,1.28E+10,Nasdaq Global Select,Gregory W. Becker,https://financialmodelingprep.com/images-New-jpg/SIVB.jpg,http://www.svb.com,Banks,Financial Services,3.5951956,98.6722227
QRVO,Qorvo Inc.,Greensboro,North carolina,United states of america,36,High,74th percentile,19.6,9,7.8,,91.38811131,1.30E+10,Nasdaq Global Select,Robert A. Bruggeworth,https://financialmodelingprep.com/images-New-jpg/QRVO.jpg,http://www.qorvo.com,Semiconductors,Technology,36.0726354,-79.7919754
VAR,Varian Medical Systems Inc.,Palo alto,California,United states of america,27,Medium,43rd percentile,3.2,12.8,10.8,,25.32874415,1.30E+10,New York Stock Exchange,Not Available,https://financialmodelingprep.com/images-New-jpg/VAR.jpg,http://www.varian.com,Medical Devices,Healthcare,37.4418834,-122.1430195
WPM,Wheaton Precious Metals Corp (Canada),Vancouver,British columbia,Canada,16,Low,10th percentile,5.6,2.9,7.8,Moderate,52.3297491,1.30E+10,New York Stock Exchange,Randy V.J. Smallwood,https://financialmodelingprep.com/images-New-jpg/WPM.jpg,http://www.wheatonpm.com,Metals & Mining,Basic Materials,49.2827291,-123.1207375
BEN,Franklin Resources Inc.,San mateo,California,United states of america,20,Medium,21st percentile,1.3,10.8,8.3,Low,-12.40728254,1.31E+10,New York Stock Exchange,Gregory E. Johnson,https://financialmodelingprep.com/images-New-jpg/BEN.jpg,http://www.franklinresources.com,Asset Management,Financial Services,37.5629917,-122.3255254
CE,Celanese Corporation Series A,Irving,Texas,United states of america,34,High,69th percentile,15,10.2,9.1,Moderate,36.84561521,1.33E+10,New York Stock Exchange,Mark C. Rohr,https://financialmodelingprep.com/images-New-jpg/CE.jpg,http://www.celanese.com,Chemicals,Basic Materials,32.8140177,-96.9488945
CNHI,CNH Industrial N.V.,London,0,United kingdom,15,Low,7th percentile,2.5,5.4,7.3,Significant,19.43539631,1.33E+10,New York Stock Exchange,Richard Tobin,https://financialmodelingprep.com/images-New-jpg/CNHI.jpg,http://www.cnhindustrial.com,Farm & Construction Machinery,Industrials,33.791638,-84.389488
CNP,CenterPoint Energy Inc (Holding Co),Houston,Texas,United states of america,32,High,61st percentile,13.8,11.8,6.4,Moderate,-3.40063762,1.34E+10,New York Stock Exchange,Scott M. Prochazka,https://financialmodelingprep.com/images-New-jpg/CNP.jpg,http://www.centerpointenergy.com,Utilities - Regulated,Utilities,29.7604267,-95.3698028
AES,The AES Corporation,Arlington,Virginia,United states of america,34,High,67th percentile,19.2,8.6,5.9,Moderate,37.62102351,1.34E+10,New York Stock Exchange,Andres R. Gluski,https://financialmodelingprep.com/images-New-jpg/AES.jpg,http://www.aes.com,Utilities - Regulated,Utilities,38.8816208,-77.0909809
DRE,Duke Realty Corporation,Indianapolis,Indiana,United states of america,17,Low,11th percentile,5.5,6.1,5.3,,33.86100386,1.35E+10,New York Stock Exchange,James B. Connor,https://financialmodelingprep.com/images-New-jpg/DRE.jpg,http://www.dukerealty.com,REITs,Real Estate,39.768403,-86.158068
FNF,FNF Group of Fidelity National Financial Inc.,Jacksonville,Florida,United states of america,29,Medium,52nd percentile,2.5,9.8,17,Low,44.24300254,1.35E+10,New York Stock Exchange,Raymond R. Quirk,https://financialmodelingprep.com/images-New-jpg/FNF.jpg,http://www.fnf.com,Insurance - Specialty,Financial Services,30.3321838,-81.655651
WYNN,Wynn Resorts Limited,Las vegas,Nevada,United states of america,28,Medium,47th percentile,3.6,13.9,10.6,High,40.40036397,1.36E+10,Nasdaq Global Select,Matt Maddox,https://financialmodelingprep.com/images-New-jpg/WYNN.jpg,http://www.wynnresorts.com,Travel & Leisure,Consumer Cyclical,36.1699412,-115.1398296
CBOE,Cboe Global Markets Inc.,Chicago,Illinois,United states of america,22,Medium,25th percentile,3,9.2,9.5,Moderate,22.6617602,1.37E+10,Nasdaq Global Select,Edward Tilly,https://financialmodelingprep.com/images-New-jpg/CBOE.jpg,http://www.cboe.com,Brokers & Exchanges,Financial Services,41.8781136,-87.6297982
WRB,W.R. Berkley Corporation,Greenwich,Connecticut,United states of america,29,Medium,52nd percentile,2,11,16.2,Low,40.24761518,1.37E+10,New York Stock Exchange,William Robert Berkley,https://financialmodelingprep.com/images-New-jpg/WRB.jpg,http://www.wrberkley.com,Insurance - Property & Casualty,Financial Services,41.0262417,-73.6281964
